City_ID,City,Lat,Lng,Max Temp,Humidity,Cloudiness,Wind Speed,Country,Date
0,papatowai,-46.5619,169.4708,11.88,89,100,3.34,NZ,1740955927
1,afaahiti,-17.75,-149.2833,26.8,74,9,5.06,PF,1740955928
2,waitangi,-43.9535,-176.5597,17.68,94,93,2.68,NZ,1740955929
3,grytviken,-54.2811,-36.5092,3.42,80,23,4.52,GS,1740955930
4,greymouth,-42.4667,171.2,19.83,79,93,2.5,NZ,1740955931
5,blackmans bay,-43.0167,147.3167,13.74,66,100,0.74,AU,1740955915
6,bethel,41.3712,-73.414,-1.66,37,4,1.79,US,1740955934
7,adamstown,-25.066,-130.1015,26.22,75,64,5.59,PN,1740955903
8,sena madureira,-9.0656,-68.6569,23.76,90,99,0.34,BR,1740955937
9,punta arenas,-53.15,-70.9167,14.06,67,100,4.12,CL,1740955938
10,kosh-agach,50.0,88.6667,-23.23,100,87,0.83,RU,1740955939
11,wajir,1.7471,40.0573,26.39,63,32,7.35,KE,1740955940
12,jaisalmer,26.9147,70.9181,21.44,40,2,6.48,IN,1740955941
13,port elizabeth,-33.918,25.5701,21.84,98,0,7.2,ZA,1740955896
14,arno,60.1167,18.6333,3.97,87,100,5.58,SE,1740955943
15,pangody,65.85,74.4859,-19.93,98,98,2.95,RU,1740955945
16,sitka,57.0531,-135.33,6.94,81,100,2.57,US,1740955946
17,ta`u,-14.2336,-169.5144,28.08,77,96,6.55,AS,1740955947
18,achinsk,56.2694,90.4993,-8.83,96,99,2.62,RU,1740955948
19,waddan,29.1614,16.139,18.91,20,80,3.74,LY,1740955949
20,pisco,-13.7,-76.2167,27.03,65,0,2.06,PE,1740955905
21,childersburg,33.2782,-86.355,13.34,22,75,1.54,US,1740955951
22,kodiak,57.79,-152.4072,5.73,75,75,5.66,US,1740955952
23,yegor'yevsk,55.3783,39.0411,-2.29,98,100,1.81,RU,1740955953
24,nalut,30.3333,10.85,14.16,46,74,5.04,LY,1740955954
25,avarua,-21.2078,-159.775,26.03,94,100,5.14,CK,1740955955
26,emporia,38.4039,-96.1817,17.11,29,0,8.75,US,1740955957
27,khovd,48.0056,91.6419,-18.31,90,71,1.32,MN,1740955958
28,opuwo,-18.0607,13.84,22.61,40,94,2.93,NA,1740955959
29,conceicao do araguaia,-8.2578,-49.2647,23.98,89,86,1.33,BR,1740955960
30,whitehorse,60.7161,-135.0538,2.43,55,20,4.63,CA,1740955818
31,cabo san lucas,22.8909,-109.9124,28.17,21,0,5.14,MX,1740955375
32,ilulissat,69.2167,-51.1,-14.99,66,100,5.14,GL,1740955891
33,an nuhud,12.7,28.4333,21.32,11,1,6.13,SD,1740955965
34,teploye,53.6202,37.5903,-1.9,97,100,4.59,RU,1740955966
35,luderitz,-26.6481,15.1594,16.35,97,70,1.71,NA,1740955968
36,port-aux-francais,-49.35,70.2167,6.89,91,100,9.82,TF,1740955896
37,merritt island,28.5392,-80.672,19.05,65,40,8.75,US,1740955970
38,edinburgh of the seven seas,-37.0676,-12.3116,18.68,85,81,10.88,SH,1740955890
39,fale old settlement,-9.3852,-171.2468,27.75,77,49,5.48,TK,1740955972
40,arafat,39.0344,44.6198,-13.13,71,6,3.16,IR,1740955973
41,sinop,41.7711,34.8709,2.44,99,100,2.32,TR,1740955974
42,longyearbyen,78.2186,15.6401,-1.09,74,20,12.35,SJ,1740955975
43,margaret river,-33.95,115.0667,17.42,80,14,3.07,AU,1740955976
44,selfoss,63.9331,-20.9971,-1.09,69,100,14.47,IS,1740955977
45,alotau,-10.3069,150.4462,29.07,70,89,3.11,PG,1740955979
46,susanville,40.4163,-120.653,8.91,46,100,5.66,US,1740955980
47,ribeira grande,38.5167,-28.7,13.21,76,56,4.02,PT,1740955981
48,saldanha,-33.0117,17.9442,20.29,76,0,1.79,ZA,1740955982
49,vila franca do campo,37.7167,-25.4333,13.23,78,69,4.21,PT,1740955983
50,monopoli,40.9559,17.2896,11.86,69,75,7.56,IT,1740955984
51,fort mcmurray,56.7268,-111.381,6.77,65,100,3.09,CA,1740955985
52,stanley,54.868,-1.6985,8.01,79,75,4.12,GB,1740955986
53,shiqian,27.5225,108.2281,13.81,94,99,1.92,CN,1740955987
54,samarinda,-0.5,117.15,23.65,98,100,0.47,ID,1740955988
55,samsun,41.25,36.3333,4.42,93,75,1.03,TR,1740955990
56,hermanus,-34.4187,19.2345,22.11,88,0,4.1,ZA,1740955991
57,puerto natales,-51.7236,-72.4875,15.25,55,75,1.03,CL,1740955992
58,tralee,52.2704,-9.7026,5.79,90,91,2.34,IE,1740955993
59,keelung,25.1283,121.7419,23.94,90,94,1.94,TW,1740955994
60,port moresby,-9.4431,147.1797,26.68,83,20,2.57,PG,1740955995
61,cockburn town,21.4612,-71.1419,26.98,100,40,2.57,TC,1740955996
62,birao,10.2849,22.7882,25.07,17,39,2.74,CF,1740955997
63,tofol,5.3248,163.0078,26.88,83,100,2.57,FM,1740955998
64,fort bragg,35.139,-79.006,9.91,23,0,0.0,US,1740955999
65,taltal,-25.4,-70.4833,21.89,74,22,2.74,CL,1740956000
66,akureyri,65.6835,-18.0878,-0.04,59,75,7.2,IS,1740956002
67,enewetak,11.3474,162.3373,26.69,66,56,7.38,MH,1740956003
68,queenstown,-31.8976,26.8753,17.67,88,55,0.99,ZA,1740956004
69,ushuaia,-54.8,-68.3,15.81,51,40,5.66,AR,1740956005
70,kingston,17.997,-76.7936,27.53,74,40,4.12,JM,1740956006
71,chonchi,-42.6128,-73.8092,13.95,74,88,2.97,CL,1740956007
72,tiksi,71.6872,128.8694,-33.44,100,99,0.83,RU,1740956008
73,port lincoln,-34.7333,135.8667,18.53,70,6,5.53,AU,1740956009
74,patterson,37.4716,-121.1297,16.11,49,83,7.2,US,1740956010
75,carrigaline,51.8117,-8.3986,5.94,87,75,2.57,IE,1740956011
76,port mathurin,-19.6833,63.4167,27.26,78,9,5.5,MU,1740956013
77,lebu,-37.6167,-73.65,17.47,80,100,5.27,CL,1740956014
78,iskateley,67.6803,53.1512,-10.91,97,100,2.18,RU,1740956015
79,guerrero negro,27.9769,-114.0611,17.16,66,94,9.87,MX,1740956016
80,nantucket,41.2835,-70.0995,-1.94,31,0,5.14,US,1740956017
81,mil'kovo,55.6078,37.7956,0.35,62,100,2.81,RU,1740956018
82,albany,42.6001,-73.9662,-7.46,58,64,1.34,US,1740955912
83,colonia,50.9333,6.95,2.75,85,0,0.51,DE,1740956020
84,lagunillas,10.1301,-71.2595,30.04,59,69,2.08,VE,1740956021
85,pandan,14.0453,124.1694,25.91,88,51,5.57,PH,1740956022
86,gaspe,48.8334,-64.4819,-9.88,73,100,3.6,CA,1740956024
87,mount gambier,-37.8333,140.7667,16.26,56,19,3.48,AU,1740956025
88,dalandzadgad,43.5708,104.425,-1.47,33,100,2.53,MN,1740956026
89,utrik,11.2278,169.8474,26.82,74,99,7.4,MH,1740956027
90,flin flon,54.7682,-101.865,-3.09,93,100,3.09,CA,1740956028
91,rawson,-43.3002,-65.1023,30.16,48,0,11.83,AR,1740956029
92,assab,13.0092,42.7394,24.83,77,3,5.44,ER,1740956030
93,totoras,-32.5844,-61.1685,23.5,98,100,2.3,AR,1740956032
94,west island,-12.1568,96.8225,27.99,89,32,5.66,CC,1740955904
95,doka,13.5167,35.7667,26.15,26,0,4.53,SD,1740956035
96,sandnessjoen,66.0217,12.6316,7.06,93,75,6.17,NO,1740956036
97,bikenibeu village,1.3673,173.1241,28.98,74,20,5.14,KI,1740956037
98,guercif,34.2257,-3.3536,13.48,71,100,3.63,MA,1740956038
99,gilgit,35.9221,74.3087,-0.09,76,100,1.56,PK,1740956039
100,forster,-32.1667,152.5167,24.31,76,29,3.63,AU,1740956040
101,hawaiian paradise park,19.5933,-154.9731,27.73,68,20,5.14,US,1740956042
102,susuman,62.7833,148.1667,-25.75,96,100,1.41,RU,1740956043
103,fuyuan,46.4333,127.0833,-22.81,99,60,1.21,CN,1740956044
104,alakurtti,66.9672,30.3491,-2.03,99,100,0.91,RU,1740956045
105,flying fish cove,-10.4217,105.6791,26.82,89,57,4.12,CX,1740956047
106,bilibino,68.0546,166.4372,-28.58,93,90,0.45,RU,1740956048
107,kirensk,57.7853,108.1119,-14.34,98,100,0.2,RU,1740956049
108,ulsteinvik,62.3432,5.8487,7.5,88,100,3.58,NO,1740956050
109,ballina,-28.8667,153.5667,24.04,84,24,9.58,AU,1740956051
110,sinan,34.8262,126.1086,3.87,90,100,7.91,KR,1740955981
111,wailua homesteads,22.0669,-159.378,26.44,78,75,5.66,US,1740956053
112,thoen,17.6129,99.2161,22.35,51,53,0.84,TH,1740956054
113,talnakh,69.4865,88.3972,-33.0,87,57,2.52,RU,1740956055
114,south hedland,-20.4089,118.5983,29.96,94,44,3.09,AU,1740956056
115,georgetown,5.4112,100.3354,27.96,73,20,2.68,MY,1740956058
116,rancheria payau,7.8541,123.1598,22.7,93,14,0.88,PH,1740956059
117,howard springs,-12.497,131.047,28.95,100,1,1.28,AU,1740956060
118,antsiranana,-12.2787,49.2917,25.05,90,38,2.21,MG,1740956061
119,hibbing,47.4272,-92.9377,1.72,29,0,2.06,US,1740956062
120,udachny,66.4167,112.4,-44.23,100,68,1.06,RU,1740956063
121,isafjordur,66.0755,-23.124,-5.48,83,100,3.54,IS,1740956064
122,umm kaddadah,13.6017,26.6876,20.37,12,26,5.41,SD,1740956065
123,island harbour,50.724,-1.2758,2.89,93,9,2.12,GB,1740956066
124,kismayo,-0.3582,42.5454,25.65,87,38,5.46,SO,1740956067
125,stepnogorsk,52.3544,71.8869,-17.83,87,48,2.73,KZ,1740956070
126,sarupathar,26.1984,93.8094,15.16,85,1,1.56,IN,1740956071
127,birendranagar,28.6019,81.6339,13.16,48,0,2.16,NP,1740956072
128,zagora,30.3484,-5.8365,15.52,30,66,2.81,MA,1740956073
129,qaqortoq,60.7167,-46.0333,-18.2,75,99,4.94,GL,1740956074
130,namibe,-15.1961,12.1522,22.75,81,88,1.4,AO,1740956075
131,toktogul,41.8708,72.9402,1.58,63,100,1.16,KG,1740956076
132,puerto baquerizo moreno,-0.9,-89.6,26.55,89,75,2.57,EC,1740956077
133,st. john's,47.5649,-52.7093,7.76,96,75,7.72,CA,1740955798
134,mossel bay,-34.1831,22.146,20.72,92,15,3.06,ZA,1740956081
135,egilsstadir,65.2653,-14.3948,0.95,75,100,5.14,IS,1740956082
136,tulun,54.5611,100.5792,-16.3,98,97,0.97,RU,1740956083
137,ust-nera,64.5667,143.2,-25.65,94,100,1.54,RU,1740956084
138,nova sintra,14.8667,-24.7167,21.25,70,4,8.69,CV,1740956085
139,whangarei,-35.7317,174.3239,24.62,43,63,0.92,NZ,1740956086
140,bel ombre,-4.6167,55.4167,26.91,78,20,1.03,SC,1740956087
141,tumaco,1.7986,-78.8156,26.04,86,98,3.43,CO,1740956088
142,qui nhon,13.7667,109.2333,22.02,89,100,1.81,VN,1740956089
143,maun,-19.9833,23.4167,20.95,92,48,2.11,BW,1740956091
144,sinabang,2.4803,96.3801,25.63,87,66,1.0,ID,1740956093
145,uturoa,-16.7333,-151.4333,28.3,75,45,4.89,PF,1740956094
146,arraias,-12.9288,-46.9437,24.2,56,100,0.91,BR,1740956095
147,la ronge,55.1001,-105.2842,3.14,70,75,0.51,CA,1740956096
148,kapuskasing,49.4169,-82.4331,-7.95,57,75,5.14,CA,1740956097
149,lata,40.1629,-8.3327,5.85,92,100,2.23,PT,1740956098
150,tura,25.5198,90.2201,18.64,41,0,1.98,IN,1740956099
151,labytnangi,66.6572,66.4183,-26.18,99,99,1.78,RU,1740956100
152,midvagur,62.0511,-7.1939,6.46,70,75,7.2,FO,1740956101
153,invercargill,-46.4,168.35,15.01,76,100,4.02,NZ,1740955756
154,iqaluit,63.7506,-68.5145,-27.15,76,20,0.0,CA,1740956103
155,grand baie,-20.0182,57.5802,26.36,87,28,4.15,MU,1740956105
156,yellowknife,62.456,-114.3525,-5.33,87,75,5.66,CA,1740956106
157,hamilton,39.1834,-84.5333,2.74,42,0,3.09,US,1740956107
158,thompson,55.7435,-97.8558,-3.91,63,100,1.54,CA,1740955817
159,wanda,-25.9693,-54.5697,31.43,49,69,1.38,AR,1740956109
160,portland,45.5234,-122.6762,12.01,76,100,6.71,US,1740955537
161,taslicay,39.6336,43.375,-13.11,59,73,0.78,TR,1740956112
162,trincomalee,8.5711,81.2335,27.57,74,84,3.93,LK,1740956113
163,mandan,46.8267,-100.8896,12.56,44,0,3.6,US,1740956115
164,ancud,-41.8697,-73.8203,13.56,85,98,5.06,CL,1740956116
165,richards bay,-28.783,32.0377,23.35,88,65,0.93,ZA,1740956117
166,souillac,-20.5167,57.5167,26.21,89,40,1.54,MU,1740956118
167,nadi,-17.8,177.4167,29.0,74,40,5.14,FJ,1740956119
168,east london,-33.0153,27.9116,22.94,88,31,6.37,ZA,1740956120
169,antonio enes,-16.2325,39.9086,23.69,91,100,2.48,MZ,1740956121
170,touros,-5.1989,-35.4608,26.88,78,86,5.04,BR,1740955907
171,keflavik,64.0049,-22.5624,-0.76,93,75,18.01,IS,1740956123
172,morehead city,34.7229,-76.726,7.03,44,0,4.12,US,1740956124
173,muli,2.9167,73.5667,27.47,77,99,6.31,MV,1740956125
174,burao,9.5221,45.5336,19.58,42,92,3.03,SO,1740956127
175,rio brilhante,-21.8019,-54.5464,28.67,40,50,2.11,BR,1740956128
176,la jolla,32.8473,-117.2742,17.3,62,40,10.29,US,1740955905
177,vorgashor,67.5833,63.95,-19.81,98,100,1.6,RU,1740956130
178,alice springs,-23.7,133.8833,28.75,28,0,3.09,AU,1740956131
179,bhamo,24.2667,97.2333,15.65,89,61,0.81,MM,1740956132
180,acapulco de juarez,16.8634,-99.8901,26.22,55,4,4.16,MX,1740956133
181,dryden,49.7833,-92.7503,2.16,51,100,6.69,CA,1740956134
182,cuito,-12.3833,16.9333,15.8,93,100,1.54,AO,1740956138
183,tolanaro,-25.0319,46.9987,26.04,94,75,3.09,MG,1740956139
184,pizarro,4.9533,-77.366,26.61,80,94,1.13,CO,1740956140
185,bredasdorp,-34.5322,20.0403,19.95,97,25,2.76,ZA,1740956141
186,olinda,-8.0089,-34.8553,26.85,83,40,6.17,BR,1740956142
187,dudinka,69.4058,86.1778,-38.29,97,65,1.62,RU,1740956143
188,labrador city,52.9463,-66.9114,-20.05,41,20,5.14,CA,1740956144
189,college,64.8569,-147.8028,2.89,66,99,1.54,US,1740955906
190,grand-lahou,5.1367,-5.0242,27.52,87,85,4.01,CI,1740956146
191,maumere,-8.6199,122.2111,26.75,82,2,1.11,ID,1740956148
192,santana,-0.0583,-51.1817,25.1,100,75,3.09,BR,1740956149
193,san patricio,28.017,-97.5169,25.97,63,39,9.34,US,1740956150
194,necochea,-38.5473,-58.7368,23.25,59,100,7.95,AR,1740956151
195,tukrah,32.5341,20.5791,14.62,41,66,4.76,LY,1740956152
196,hithadhoo,-0.6,73.0833,28.06,75,100,8.68,MV,1740956153
197,agadez,19.75,10.25,22.91,10,8,1.81,NE,1740956154
198,kavieng,-2.5744,150.7967,28.11,77,100,3.79,PG,1740956155
199,ayr,55.4627,-4.6339,8.99,77,75,7.72,GB,1740956156
200,lompoc,34.6391,-120.4579,13.9,78,75,6.69,US,1740956157
201,constantia,44.1833,28.65,1.5,77,99,4.26,RO,1740955887
202,barberton,-25.7884,31.0532,19.25,97,99,0.64,ZA,1740956160
203,coquimbo,-29.9533,-71.3436,19.85,64,0,6.17,CL,1740956161
204,lalian,31.8241,72.7997,15.05,46,60,2.29,PK,1740956162
205,jamestown,42.097,-79.2353,-6.66,75,100,3.09,US,1740956163
206,jinsha,32.0898,121.0735,6.43,87,100,7.76,CN,1740956164
207,ocean shores,46.9737,-124.1563,12.19,82,100,4.63,US,1740956081
208,ntungamo,-0.8833,29.65,20.66,57,51,1.68,UG,1740956166
209,prince rupert,54.3161,-130.3201,8.05,83,20,4.63,CA,1740956167
210,kouango,4.9934,19.9619,28.52,22,11,1.08,CF,1740956168
211,kurumkan,54.3,110.3,-21.51,95,78,1.49,RU,1740956169
212,kennett,36.2362,-90.0556,7.97,36,0,3.6,US,1740956056
213,puerto ayora,-0.7393,-90.3518,26.31,81,80,0.96,EC,1740956172
214,yuzhno-kurilsk,44.0306,145.8556,-6.86,67,79,8.54,RU,1740956173
215,ulladulla,-35.35,150.4667,19.35,75,100,5.08,AU,1740956174
216,nguekhokh,14.5128,-17.005,20.49,83,0,5.14,SN,1740956175
217,saint-pierre,-21.3393,55.4781,26.82,83,40,2.06,RE,1740956176
218,anadyr,64.75,177.4833,-23.72,77,0,1.0,RU,1740956177
219,carnarvon,-24.8667,113.6333,26.73,72,46,6.26,AU,1740956178
220,moose jaw,50.4001,-105.5344,2.14,64,41,1.54,CA,1740956179
221,badger,64.8,-147.5333,2.42,72,98,1.24,US,1740956180
222,malango,-2.9627,119.9001,20.29,97,85,0.56,ID,1740956181
223,lihue,21.9789,-159.3672,26.77,74,75,5.66,US,1740956183
224,los palacios,22.5872,-83.2486,24.64,54,70,3.53,CU,1740956184
225,remire-montjoly,4.9167,-52.2667,25.02,88,100,6.17,GF,1740956185
226,bubaque,11.2833,-15.8333,23.52,67,4,10.63,GW,1740956187
227,balaipungut,1.05,101.2833,22.93,96,100,0.66,ID,1740956188
228,la'ie,21.6477,-157.9253,29.47,66,1,3.58,US,1740955914
229,manokwari,-0.8667,134.0833,27.02,80,94,3.4,ID,1740956190
230,meadow lakes,61.6247,-149.6011,8.93,48,75,2.57,US,1740956191
231,kapiri mposhi,-13.9652,28.6809,17.95,98,99,1.68,ZM,1740956192
232,lorengau,-2.0226,147.2712,28.19,80,82,3.57,PG,1740956194
233,kenai,60.5544,-151.2583,9.05,53,40,5.14,US,1740956195
234,cururupu,-1.8283,-44.8683,22.95,100,90,0.68,BR,1740956196
235,mount isa,-20.7333,139.5,31.87,43,24,2.57,AU,1740956197
236,naryshkino,52.9678,35.7268,-1.22,96,100,3.78,RU,1740956198
237,shakawe,-18.3667,21.85,19.82,95,32,2.07,BW,1740956199
238,crane,31.3974,-102.3501,23.48,10,1,8.47,US,1740956200
239,markaz-e hukumat-e darweshan,31.1323,64.1934,10.04,42,96,5.39,AF,1740956201
240,olonkinbyen,70.9221,-8.7187,-1.89,84,100,6.64,SJ,1740956202
241,cabedelo,-6.9811,-34.8339,27.37,79,41,5.84,BR,1740956203
242,illizi,26.4833,8.4667,18.14,19,100,2.2,DZ,1740956204
243,acarau,-2.8856,-40.12,25.82,83,96,3.72,BR,1740956206
244,tazovsky,67.4667,78.7,-26.53,98,100,3.28,RU,1740956207
245,ust'-kalmanka,52.1207,83.305,-15.31,96,85,1.86,RU,1740956208
246,dobropillya,48.4615,37.0852,-5.05,84,100,2.09,UA,1740956209
247,bukoba,-1.3317,31.8122,20.99,78,20,0.0,TZ,1740956210
248,newport,51.5877,-2.9984,4.19,73,2,0.99,GB,1740956211
249,vilyuchinsk,52.9306,158.4028,-5.85,86,100,4.83,RU,1740956212
250,oistins,13.0667,-59.5333,26.05,73,40,6.17,BB,1740956213
251,karagandy,49.8019,73.1021,-21.03,78,100,4.42,KZ,1740956214
252,whitby,54.4877,-0.615,7.43,77,52,5.74,GB,1740956215
253,bamboo flat,11.7,92.7167,24.05,94,8,0.51,IN,1740956216
254,geraldton,-28.7667,114.6,21.23,88,44,3.6,AU,1740956218
255,san luis de la loma,17.2706,-100.8939,29.08,50,2,3.88,MX,1740956219
256,vegreville,53.5001,-112.0518,6.03,65,100,4.63,CA,1740956220
257,kapa'a,22.0752,-159.319,27.18,78,75,5.66,US,1740956221
258,kencong,-8.2833,113.3667,24.2,90,2,1.41,ID,1740956222
259,guarapari,-20.6667,-40.4975,24.7,87,2,2.89,BR,1740956223
260,pangai,-19.8,-174.35,24.06,94,100,1.03,TO,1740956226
261,mazeikiai,56.3167,22.3333,2.19,94,100,4.56,LT,1740956227
262,jayapura,-2.5333,140.7,24.66,90,80,2.28,ID,1740956229
263,margate,51.3813,1.3862,4.22,76,0,0.38,GB,1740956230
264,robinwood,39.637,-77.6569,1.71,41,0,4.12,US,1740956231
265,vadso,70.0744,29.7487,-3.91,93,75,5.14,NO,1740956232
266,walvis bay,-22.9575,14.5053,17.53,88,32,1.03,NA,1740956233
267,sao desiderio,-12.3633,-44.9733,25.35,53,100,1.15,BR,1740956234
268,petropavlovsk-kamchatsky,53.0452,158.6483,-6.67,58,75,10.0,RU,1740956235
269,ribeira brava,32.65,-17.0667,15.4,61,35,1.6,PT,1740956236
270,rongelap,11.1635,166.8941,26.48,71,60,7.69,MH,1740956237
271,urengoy,65.9667,78.3667,-23.24,98,100,2.87,RU,1740956238
272,selkirk,50.1436,-96.8845,-2.56,92,72,2.39,CA,1740956240
273,revda,56.801,59.9303,-10.27,97,100,1.41,RU,1740956241
274,poronaysk,49.2167,143.1167,-16.92,77,18,2.98,RU,1740956242
275,puerto cabezas,14.0351,-83.3888,28.98,84,40,4.12,NI,1740956243
276,puerto deseado,-47.7503,-65.8938,21.33,41,74,8.89,AR,1740956244
277,severo-yeniseyskiy,60.3725,93.0408,-9.65,94,100,3.53,RU,1740956245
278,strathmore,51.0501,-113.3852,1.63,91,71,4.8,CA,1740956246
279,gadzhiyevo,69.2551,33.3362,-0.92,94,100,2.89,RU,1740956247
280,kirakira,-10.4544,161.9205,28.88,78,31,2.46,SB,1740956248
281,anguera,-12.151,-39.2453,24.82,75,27,4.27,BR,1740956249
282,aswan,24.0934,32.907,20.61,26,0,3.09,EG,1740956250
283,launceston,-41.45,147.1667,15.8,72,100,2.57,AU,1740956252
284,bundaberg,-24.85,152.35,26.86,60,70,6.09,AU,1740956253
285,kolonia,50.9333,6.95,2.75,85,0,0.51,DE,1740956254
286,semirom,31.4167,51.5667,-5.03,49,0,1.33,IR,1740956255
287,catumbela,-12.4314,13.5472,25.42,74,89,2.78,AO,1740956256
288,grajau,-5.8194,-46.1386,23.47,94,100,1.52,BR,1740956257
289,lupane,-18.9315,27.807,19.27,96,62,2.69,ZW,1740956258
290,la passe,45.5549,-0.8967,5.84,78,40,4.15,FR,1740956259
291,pacific grove,36.6177,-121.9166,13.83,77,75,6.69,US,1740956260
292,goundam,16.4145,-3.6708,28.77,14,92,4.0,ML,1740956261
293,kolonia town,6.964,158.206,29.0,79,75,3.13,FM,1740956262
294,ruyigi,-3.45,30.3167,13.74,85,36,0.05,BI,1740956264
295,ghadamis,30.1337,9.5007,16.1,41,67,3.05,LY,1740956266
296,ghanzi,-21.5667,21.7833,21.66,82,86,3.97,BW,1740956267
297,taroa,8.7058,171.2275,27.02,79,83,9.55,MH,1740956268
298,gizo,-8.103,156.8419,28.41,73,79,1.22,SB,1740956269
299,alpena,45.0617,-83.4327,-1.82,64,100,3.09,US,1740956271
300,polyarnyy,69.1989,33.4478,-0.98,94,100,3.16,RU,1740956274
301,biryusinsk,55.9634,97.8235,-9.3,97,100,1.38,RU,1740956275
302,gwadar,25.1216,62.3254,22.32,75,9,7.64,PK,1740956276
303,kayangel,8.0823,134.7173,28.09,81,88,8.61,PW,1740956277
304,horsens,55.8607,9.8503,5.99,90,80,7.2,DK,1740956279
305,nicoya,10.1483,-85.452,31.68,41,33,4.04,CR,1740956281
306,aasiaat,68.7098,-52.8699,-23.52,99,97,2.87,GL,1740956175
307,sola,-13.8833,167.55,27.96,72,22,1.44,VU,1740956283
308,tokar,18.4254,37.729,22.09,63,15,2.95,SD,1740956284
309,singaraja,-8.112,115.0882,26.39,85,19,1.6,ID,1740956286
310,shingu,33.7333,135.9833,19.32,85,94,7.0,JP,1740956090
311,klyuchi,52.2667,79.1667,-18.4,100,80,2.29,RU,1740956288
312,hakha,22.65,93.6167,11.48,81,53,1.77,MM,1740956289
313,menominee,45.1078,-87.6143,-0.96,29,100,2.57,US,1740956290
314,al ghayzah,16.2079,52.176,21.98,80,2,1.47,YE,1740956292
315,bardai,11.65,7.2333,25.56,20,90,3.77,NG,1740955894
316,quellon,-43.1167,-73.6167,13.36,73,89,4.02,CL,1740956294
317,asau,46.4333,26.4,-3.33,93,90,1.92,RO,1740956295
318,piraziz,40.9333,38.1333,6.45,70,100,1.22,TR,1740956296
319,rio grande,-32.035,-52.0986,23.89,89,8,4.59,BR,1740956297
320,atafu village,-8.5421,-172.5159,27.81,76,57,6.38,TK,1740956298
321,mbanza-ngungu,-5.25,14.8667,22.02,92,96,1.5,CD,1740956299
322,jaggayyapeta,16.9,80.1,22.68,72,87,1.61,IN,1740956300
323,vuktyl,63.8567,57.3094,-9.07,98,96,1.59,RU,1740956301
324,callao,-12.0667,-77.15,27.16,61,0,2.57,PE,1740956302
325,kristiansund,63.1115,7.732,7.36,81,75,10.29,NO,1740955911
326,scinawa,51.4163,16.4251,3.96,81,100,3.85,PL,1740956305
327,saipan,15.1355,145.701,27.39,69,40,9.26,MP,1740956306
328,saint-tropez,43.2693,6.6398,5.4,62,78,6.87,FR,1740956307
329,thinadhoo,0.5333,72.9333,27.98,74,99,9.7,MV,1740956308
330,marsh harbour,26.5412,-77.0636,21.95,70,1,5.94,BS,1740956309
331,ciudad lazaro cardenas,17.9583,-102.2,27.9,55,0,4.44,MX,1740956132
332,kitimat,54.0524,-128.6534,8.84,69,95,0.45,CA,1740956311
333,aleksandrovsk-sakhalinskiy,50.8975,142.1561,-16.91,87,100,4.52,RU,1740956312
334,amurzet,47.6967,131.0981,-21.43,91,4,2.2,RU,1740956313
335,karema,-6.8205,30.4389,22.17,87,55,2.87,TZ,1740956314
336,fushun,41.8558,123.9233,-4.86,28,88,2.52,CN,1740956316
337,morondava,-20.2833,44.2833,26.85,79,99,3.59,MG,1740956317
338,tamanrasset,22.785,5.5228,12.95,13,77,1.54,DZ,1740956318
339,csorna,47.6115,17.2501,2.46,73,0,3.24,HU,1740956319
340,raub,3.7899,101.857,21.37,98,83,0.54,MY,1740956320
341,mersing,2.4312,103.8405,24.95,88,20,2.57,MY,1740956321
342,pyt-yakh,60.7499,72.8582,-4.45,97,100,2.17,RU,1740956322
343,chaman,30.9236,66.4512,6.97,75,100,3.84,PK,1740956323
344,weare,43.0948,-71.7306,-6.54,40,92,4.03,US,1740956324
345,ladario,-19.0047,-57.6017,29.04,55,75,2.55,BR,1740956325
346,lodja,-3.4833,23.4333,21.51,97,99,2.1,CD,1740956326
347,soligalich,59.0778,42.2864,-6.18,98,100,1.44,RU,1740956328
348,san antonio de pale,-1.4014,5.6325,27.89,78,91,6.04,GQ,1740956329
349,quibala,-10.7337,14.98,18.03,84,100,1.29,AO,1740956330
350,san fernando,15.0286,120.6898,23.85,82,84,1.48,PH,1740956331
351,canchungo,12.0672,-16.0333,19.99,59,11,3.54,GW,1740956332
352,praia da vitoria,38.7333,-27.0667,14.14,72,75,4.49,PT,1740956333
353,douglas,41.3,-96.167,13.06,35,0,7.2,US,1740956334
354,holdrege,40.4403,-99.3698,13.95,41,0,8.23,US,1740956335
355,tarakan,3.3,117.6333,24.72,94,20,1.03,ID,1740956336
356,bellefontaine,40.3612,-83.7597,-2.25,62,8,1.34,US,1740956340
357,daru,-9.0763,143.2092,24.7,95,100,3.97,PG,1740956341
358,kavaratti,10.5669,72.642,28.24,73,100,3.34,IN,1740956342
359,kirksville,40.1948,-92.5833,8.92,32,0,5.14,US,1740956343
360,xapuri,-10.6517,-68.5044,22.16,98,86,0.75,BR,1740956344
361,nouadhibou,20.931,-17.0347,16.99,88,0,1.54,MR,1740956345
362,arkhangel'sk,64.5401,40.5433,-1.94,100,100,2.0,RU,1740956347
363,shalkar,47.8288,59.6258,-19.81,100,88,2.67,KZ,1740956348
364,diapaga,12.0708,1.7889,30.13,16,3,2.86,BF,1740956349
365,urzhum,57.1141,49.9996,-5.16,97,100,2.64,RU,1740956350
366,berdigestyakh,62.0989,126.6992,-42.65,100,86,0.33,RU,1740956351
367,ende,-8.8432,121.6623,24.26,91,5,0.64,ID,1740956352
368,caaguazu,-25.45,-56.0167,30.67,34,55,2.53,PY,1740956353
369,tagta,41.6504,59.9164,-2.03,100,100,6.17,TM,1740956354
370,nishinoomote,30.7333,131.0,20.39,86,93,7.62,JP,1740956355
371,russellville,35.2784,-93.1338,13.88,32,0,4.63,US,1740956356
372,camacupa,-12.0167,17.4833,16.43,94,95,1.43,AO,1740956357
373,newman,37.3138,-121.0208,16.13,49,89,5.81,US,1740956359
374,camana,-16.6228,-72.7111,22.85,83,81,3.63,PE,1740956360
375,turar ryskulov,42.5333,70.3333,-4.55,94,100,6.12,KZ,1740956361
376,nago,26.5881,127.9761,21.86,85,78,4.03,JP,1740956362
377,kruisfontein,-34.0033,24.7314,20.44,93,22,3.66,ZA,1740956363
378,warman,52.3168,-106.5679,0.95,80,20,2.57,CA,1740956364
379,mizdah,31.4451,12.9801,15.35,36,97,6.19,LY,1740956365
380,magadan,59.5667,150.8,-22.56,77,58,4.33,RU,1740956366
381,kotputli,27.7167,76.2,14.14,38,0,0.72,IN,1740956367
382,chalatenango,14.0333,-88.9333,33.77,32,30,3.03,SV,1740956368
383,alo,6.5486,4.2686,27.3,88,99,3.1,NG,1740956370
384,juneau,58.3019,-134.4197,6.0,95,100,0.0,US,1740956371
385,clinton,42.587,-82.9199,-0.6,56,75,3.09,US,1740956372
386,phalaborwa,-23.943,31.1411,21.68,86,9,3.64,ZA,1740956373
387,el abiodh sidi cheikh,32.893,0.5484,11.61,34,64,1.68,DZ,1740956374
388,chokwe,-24.5333,32.9833,22.62,92,19,2.76,MZ,1740956375
389,karystos,38.0133,24.4161,14.68,53,100,1.79,GR,1740956377
390,dubbo,-32.25,148.6167,26.07,53,0,8.23,AU,1740956378
391,padrauna,26.9025,83.9819,16.6,26,0,4.05,IN,1740956381
392,thunder bay,48.4001,-89.3168,-4.01,68,75,3.6,CA,1740956382
393,progreso,21.2833,-89.6667,24.71,71,1,6.38,MX,1740956383
394,ayacucho,-13.1583,-74.2239,17.92,63,75,2.57,PE,1740956384
395,tahe,52.3333,124.7333,-26.76,98,19,1.56,CN,1740956385
396,aqadyr,48.2553,72.8483,-15.65,86,100,2.4,KZ,1740956386
397,port alfred,-33.5906,26.891,23.35,87,10,9.76,ZA,1740956387
398,pekan,3.4836,103.3996,23.16,89,84,2.54,MY,1740956388
399,tongchuanshi,35.0806,109.0897,2.74,98,100,1.96,CN,1740956389
400,lere,10.387,8.5726,25.49,21,100,2.56,NG,1740956391
401,bukama,-9.2,25.85,22.18,87,100,0.92,CD,1740956392
402,cody,44.5263,-109.0565,16.12,17,0,4.12,US,1740956395
403,klaksvik,62.2266,-6.589,5.9,70,78,15.38,FO,1740956396
404,solok,-0.7918,100.6593,22.0,98,100,0.62,ID,1740956397
405,westport,41.1415,-73.3579,-0.93,35,2,4.47,US,1740956399
406,baruun-urt,46.6806,113.2792,-10.22,60,97,3.09,MN,1740956400
407,kattivakkam,13.2167,80.3167,27.05,83,34,2.48,IN,1740956401
408,port macquarie,-31.4333,152.9167,26.15,79,36,2.68,AU,1740956402
409,kholmsk,47.0511,142.0569,-8.45,76,100,8.65,RU,1740956307
410,caussade,44.1608,1.5391,7.22,76,93,2.15,FR,1740956405
411,pacasmayo,-7.4006,-79.5714,26.13,72,95,4.22,PE,1740956406
412,port blair,11.6667,92.75,24.02,94,8,0.51,IN,1740956339
413,salekhard,66.53,66.6019,-26.85,99,98,2.14,RU,1740956409
414,valparaiso,-33.0393,-71.6273,20.56,67,0,3.6,CL,1740956410
415,smithers,54.7804,-127.1743,5.18,75,40,5.14,CA,1740956205
416,hailar,49.2,119.7,-25.04,94,61,2.43,CN,1740956412
417,nguigmi,14.2495,13.1092,26.97,21,14,5.36,NE,1740956413
418,sorong,-0.8833,131.25,26.36,87,78,2.95,ID,1740956414
419,sapulpa,35.9987,-96.1142,16.49,37,100,6.0,US,1740956415
420,fortaleza,-3.7227,-38.5247,28.45,83,0,1.54,BR,1740956405
421,loa janan,-0.583,117.095,23.61,98,100,0.35,ID,1740956417
422,ayancik,41.9447,34.5861,5.16,95,100,4.44,TR,1740956418
423,taoudenni,22.6783,-3.9836,26.09,13,100,3.8,ML,1740956419
424,plouzane,48.3833,-4.6167,5.03,81,0,4.12,FR,1740956421
425,trairi,-3.2778,-39.2689,25.05,87,97,2.51,BR,1740956422
426,bengkulu,-3.8004,102.2655,24.69,90,98,1.71,ID,1740956423
427,manggar,-2.8833,108.2667,25.07,90,97,1.81,ID,1740956424
428,cabinda,-5.55,12.2,26.1,87,83,2.67,AO,1740956425
429,melekeok village,7.4957,134.6367,27.05,84,98,6.8,PW,1740956426
430,plettenberg bay,-34.0527,23.3716,20.91,84,11,1.94,ZA,1740956427
431,xiaoweizhai,26.1903,107.5125,14.08,98,42,1.12,CN,1740956428
432,celestun,20.8667,-90.4,25.31,69,1,6.76,MX,1740956429
433,idri,27.5,13.2667,17.99,18,89,4.8,LY,1740956430
434,buchach,49.0625,25.388,1.26,72,84,5.66,UA,1740956431
435,huarmey,-10.0681,-78.1522,25.53,76,52,2.85,PE,1740956433
436,tadine,-21.55,167.8833,27.29,72,80,5.66,NC,1740956434
437,masvingo,-20.0637,30.8277,18.78,82,89,1.89,ZW,1740956435
438,nizhnyaya omka,55.4338,74.9426,-15.51,98,93,3.08,RU,1740956436
439,preobrazheniye,42.9019,133.9064,-8.57,44,75,2.91,RU,1740956437
440,portel,-1.9356,-50.8211,24.15,95,74,1.41,BR,1740956438
441,peremyshlyany,49.6652,24.5585,-1.37,93,81,4.62,UA,1740956439
442,okhotsk,59.3833,143.3,-20.49,75,100,6.95,RU,1740956440
443,abbeville,50.1,1.8333,2.48,80,0,1.62,FR,1740956441
444,urzhar,47.093,81.6294,-9.05,74,8,3.5,KZ,1740956443
445,raja,8.4596,25.678,25.1,18,2,1.45,SS,1740956444
446,usinsk,65.9939,57.5281,-7.05,96,99,2.98,RU,1740956433
447,canutama,-6.5339,-64.3831,24.53,95,98,1.49,BR,1740956446
448,mount pearl,47.5166,-52.7813,7.3,97,75,7.72,CA,1740956447
449,vico del gargano,41.8983,15.9576,9.21,70,67,6.32,IT,1740956448
450,villa regina,-39.1,-67.0667,28.32,21,59,0.89,AR,1740956449
451,hadibu,12.65,54.0333,24.13,79,100,2.43,YE,1740956450
452,vidyayevo,69.3191,32.8049,-1.97,94,98,2.53,RU,1740956451
453,lydenburg,-25.0978,30.4597,16.22,96,92,1.34,ZA,1740956452
454,luwuk,-0.9516,122.7875,24.04,91,95,0.28,ID,1740956453
455,tanout,14.9709,8.8879,25.56,19,38,4.82,NE,1740956455
456,general acha,-37.377,-64.6043,21.77,93,100,5.33,AR,1740956456
457,shakhtinsk,49.71,72.5872,-18.47,91,99,2.42,KZ,1740956457
458,hirara,24.8,125.2833,23.15,94,75,4.63,JP,1740956458
459,russkaya polyana,49.417,31.9201,0.56,87,100,2.43,UA,1740956459
460,brookings,44.3114,-96.7984,11.14,39,0,7.72,US,1740956308
461,broken hill,-31.95,141.4333,21.25,40,0,8.25,AU,1740956461
462,petauke,-14.2426,31.3253,18.52,97,100,1.68,ZM,1740956462
463,al artawiyah,26.5053,45.3444,11.44,27,0,2.35,SA,1740956463
464,san rafael del sur,11.8485,-86.4384,33.78,33,0,7.52,NI,1740956464
465,sisimiut,66.9395,-53.6735,-19.31,95,95,2.77,GL,1740956174
466,nar'yan-mar,67.6713,53.087,-11.1,97,99,2.17,RU,1740956466
467,valencia de alcantara,39.4115,-7.2444,5.67,96,100,3.29,ES,1740956468
468,floro,61.5996,5.0328,5.98,93,100,11.83,NO,1740956470
469,kaa-khem,51.6833,94.7333,-17.86,94,93,1.51,RU,1740956471
470,lerwick,60.1545,-1.1494,8.04,88,100,9.35,GB,1740956472
471,happy valley-goose bay,53.3168,-60.3315,-17.83,71,100,6.17,CA,1740956473
472,berezovyy,51.6667,135.7,-23.38,80,9,1.9,RU,1740956474
473,prineville,44.2999,-120.8345,5.73,81,75,5.14,US,1740956475
474,sungai penuh,-2.0833,101.3833,19.94,95,100,1.41,ID,1740956477
475,oamaru,-45.0784,170.9801,14.65,92,100,6.43,NZ,1740956478
476,rosetta,31.4044,30.4164,13.17,85,100,3.38,EG,1740956479
477,blenheim,-41.516,173.9528,27.51,46,1,0.45,NZ,1740956415
478,nikolayevsk-on-amure,53.1406,140.73,-20.81,83,96,4.39,RU,1740956481
479,porto torres,40.835,8.3972,11.1,80,49,6.92,IT,1740956482
480,menongue,-14.6585,17.691,17.56,94,100,2.16,AO,1740956483
481,estevan,49.1334,-102.9842,6.11,70,0,2.06,CA,1740956484
482,aroma,15.8167,36.1333,22.37,49,1,3.57,SD,1740956485
483,genhe,50.7833,121.5167,-31.26,100,99,0.39,CN,1740956486
484,matagalpa,12.9256,-85.9175,28.45,53,40,0.0,NI,1740956487
485,juegang,32.3174,121.1855,6.13,90,100,9.85,CN,1740956489
486,tobelo,1.7284,128.0095,27.75,75,91,1.1,ID,1740956490
487,shwebo,22.5667,95.7,22.95,39,20,2.54,MM,1740956491
488,pyhajarvi,67.0701,27.2176,-2.48,97,95,0.6,FI,1740956492
489,nuuk,64.1835,-51.7216,-12.66,61,75,5.66,GL,1740956493
490,sao felix do xingu,-6.6447,-51.995,22.26,98,91,0.86,BR,1740956494
491,badiyah,22.45,58.8,20.75,70,6,3.33,OM,1740956495
492,howrah,22.5892,88.3103,25.0,88,40,0.0,IN,1740956496
493,diego de almagro,-26.3667,-70.05,23.51,33,3,4.03,CL,1740956497
494,tromso,69.6496,18.957,1.01,64,0,4.12,NO,1740956498
495,kununurra,-15.7667,128.7333,27.99,83,30,0.0,AU,1740956499
496,north bend,43.4065,-124.2243,10.7,93,100,5.66,US,1740956501
497,razole,16.4833,81.8333,21.21,93,35,0.49,IN,1740956502
498,pak phanang,8.3511,100.202,25.74,76,99,1.95,TH,1740956503
499,dazhou,31.2159,107.5009,10.5,97,100,2.12,CN,1740956504
500,lubumbashi,-11.6609,27.4794,17.49,96,100,1.04,CD,1740956324
501,salta,-24.7859,-65.4117,26.33,61,75,4.12,AR,1740956506
502,mugia,43.1041,-9.2179,8.28,71,4,7.85,ES,1740956507
503,maryport,54.7143,-3.4951,7.84,94,100,4.47,GB,1740956508
504,aykhal,66.0,111.5,-38.78,100,66,1.29,RU,1740956509
505,myanaung,18.2833,95.3167,22.53,38,100,1.76,MM,1740956510
506,jalgaon,21.0167,75.5667,23.25,32,29,2.61,IN,1740956511
507,youghal,51.95,-7.8506,4.83,88,59,2.6,IE,1740956513
508,coronel du graty,-27.6804,-60.9146,35.05,29,100,2.91,AR,1740956514
509,karaton,-6.3424,106.1045,21.95,98,92,0.95,ID,1740956515
510,urumqi,43.801,87.6005,-6.47,86,75,1.0,CN,1740956406
511,matane,48.8286,-67.522,-9.9,79,100,9.33,CA,1740956517
512,swan hill,-35.3378,143.5544,18.27,44,3,5.38,AU,1740956518
513,arrifes,37.7667,-25.7,12.14,76,75,4.12,PT,1740956519
514,pasvalys,56.0594,24.4036,1.42,94,100,4.61,LT,1740956520
515,karratha,-20.7377,116.8463,32.83,47,4,3.19,AU,1740956310
516,fuerte olimpo,-21.0415,-57.8738,30.24,46,29,4.83,PY,1740956523
517,anthony,32.004,-106.6058,21.6,15,0,7.2,US,1740956524
518,adrar,20.5022,-10.0711,27.22,21,100,9.18,MR,1740956525
519,antofagasta,-23.65,-70.4,21.6,86,32,3.64,CL,1740956528
520,vila velha,-20.3297,-40.2925,27.97,74,40,3.09,BR,1740956529
521,mawu,34.4307,104.9176,-3.59,87,100,1.78,CN,1740956530
522,dhamar,14.5427,44.4051,14.67,39,44,4.72,YE,1740956531
523,el jadid,33.2549,-8.506,13.6,78,87,1.85,MA,1740956533
524,son la,21.3167,103.9,16.65,49,2,0.93,VN,1740956534
525,yelizovo,53.1873,158.3805,-5.92,58,75,10.0,RU,1740956535
526,kourou,5.1552,-52.6478,24.72,83,75,4.82,GF,1740956536
527,vinales,22.6164,-83.7078,22.82,63,0,4.61,CU,1740956537
528,sunne,59.8376,13.143,3.59,81,100,4.1,SE,1740956538
529,san jose del guaviare,2.5729,-72.6459,26.66,76,93,0.1,CO,1740956539
530,tarawa,1.419,172.984,29.05,74,20,5.14,KI,1740956540
531,kukawa,12.9234,13.5606,26.06,36,9,4.75,NG,1740956541
532,minbu,20.1833,94.8833,23.35,49,9,0.33,MM,1740956542
533,jiuquan,39.7432,98.5174,-2.01,68,15,1.69,CN,1740956543
534,kadnikov,59.5022,40.338,-5.44,99,100,1.6,RU,1740956545
535,champerico,14.3,-91.9167,29.34,62,4,4.64,GT,1740956546
536,altai,46.3722,96.2583,-12.64,68,33,0.61,MN,1740956547
537,ashland,40.8167,-82.2665,-3.32,89,10,3.41,US,1740956548
538,al ain city,24.1917,55.7606,13.79,62,0,2.06,AE,1740956549
539,kantang,7.4054,99.5156,25.05,88,20,2.06,TH,1740956550
540,pangkalpinang,-2.1333,106.1333,24.33,94,90,1.42,ID,1740956551
541,new norfolk,-42.7826,147.0587,15.51,47,100,1.05,AU,1740956552
542,lethem,3.3803,-59.7968,31.54,33,4,3.98,GY,1740956553
543,caconda,-13.7333,15.0667,16.5,91,100,1.14,AO,1740956554
544,plastun,44.7561,136.2939,-14.02,38,0,3.47,RU,1740956555
545,altos,-5.0381,-42.46,23.46,93,98,1.86,BR,1740956557
546,charters towers,-20.1,146.2667,27.98,54,5,1.22,AU,1740956558
547,bolkhov,53.4433,36.0044,-1.48,96,100,3.58,RU,1740956559
548,guayaramerin,-10.8368,-65.3614,23.71,97,71,0.6,BO,1740956560
549,papao,-17.75,-149.55,30.82,69,6,4.92,PF,1740956561
550,sao joao da barra,-21.6403,-41.0511,26.05,85,0,4.08,BR,1740956562
551,cuajinicuilapa,16.4667,-98.4167,30.95,45,4,4.47,MX,1740956563
552,kamloops,50.6665,-120.3192,12.55,47,75,6.69,CA,1740956564
553,mochudi,-24.4167,26.15,22.33,85,89,1.86,BW,1740956565
554,chernyshevskiy,63.0128,112.4714,-41.43,100,96,1.83,RU,1740956566
555,nokia,61.4667,23.5,-1.75,99,0,2.24,FI,1740956567
556,ketchikan,55.3422,-131.6461,9.43,83,91,0.45,US,1740956569
557,crucecita,-28.95,-58.9833,32.71,39,86,3.72,AR,1740956570
558,abu jibeha,11.4562,31.2285,27.55,14,12,5.9,SD,1740956571
559,lakewood,39.7047,-105.0814,18.61,16,34,2.24,US,1740956391
560,tomatlan,19.9333,-105.25,29.68,39,0,4.81,MX,1740956574
561,kodinsk,58.6881,99.1844,-11.51,97,100,1.41,RU,1740956575
562,nemuro,43.3236,145.575,-5.13,59,78,10.72,JP,1740956576
563,katsuren-haebaru,26.3369,127.8719,23.21,89,75,5.66,JP,1740956577
564,taulaga,-11.0553,-171.0883,28.19,75,72,5.15,AS,1740956579
565,fredericksburg,38.3032,-77.4605,5.12,30,0,2.06,US,1740956580
566,ghat,24.9647,10.1728,20.63,12,100,2.86,LY,1740956581
567,leua,48.2156,18.6071,0.92,73,0,2.01,SK,1740956582
568,mar del plata,-38.0023,-57.5575,23.38,79,0,5.14,AR,1740956430
569,jinghong,21.991,100.7341,16.08,48,1,1.28,CN,1740956585
570,arraial do cabo,-22.9661,-42.0278,25.51,86,0,7.98,BR,1740956586
571,purranque,-40.9167,-73.1667,14.04,97,100,1.24,CL,1740956587
572,labuan,5.2767,115.2417,27.2,94,20,1.03,MY,1740956589
573,kone,-21.0595,164.8658,28.19,79,100,3.55,NC,1740956590
574,santiago,-33.4569,-70.6483,23.98,48,0,6.17,CL,1740956402
575,anjozorobe,-18.4,47.8667,17.21,95,38,1.58,MG,1740956592
576,kijang,35.2442,129.2139,2.85,93,100,12.0,KR,1740956593
577,yuci,37.6803,112.7319,-0.14,34,0,5.0,CN,1740956594
