City_ID,City,Lat,Lng,Max Temp,Humidity,Cloudiness,Wind Speed,Country,Date
0,albany,42.6001,-73.9662,2.69,53,4,2.24,US,1741373381
1,bethel,41.3712,-73.414,6.61,41,75,10.8,US,1741373382
2,guerrero negro,27.9769,-114.0611,16.12,48,0,8.65,MX,1741373383
3,kodiak,57.79,-152.4072,2.73,70,0,5.66,US,1741373258
4,tazovsky,67.4667,78.7,-21.79,100,81,2.52,RU,1741373385
5,kamina,-8.7386,24.9906,20.15,93,95,1.77,CD,1741373386
6,arteche,12.2645,125.4048,25.25,91,37,4.15,PH,1741373387
7,port mathurin,-19.6833,63.4167,27.65,79,100,8.5,MU,1741373389
8,lompoc,34.6391,-120.4579,14.73,70,0,9.26,US,1741373390
9,bilibino,68.0546,166.4372,-31.98,100,96,2.24,RU,1741373391
10,flying fish cove,-10.4217,105.6791,25.82,94,100,2.06,CX,1741373392
11,port-aux-francais,-49.35,70.2167,7.9,98,100,6.91,TF,1741373393
12,bredasdorp,-34.5322,20.0403,20.38,80,0,5.3,ZA,1741373396
13,port moresby,-9.4431,147.1797,24.68,94,40,2.57,PG,1741373398
14,blackmans bay,-43.0167,147.3167,14.07,92,13,0.45,AU,1741373399
15,utrik,11.2278,169.8474,26.83,73,0,10.19,MH,1741373400
16,grytviken,-54.2811,-36.5092,4.82,75,100,3.77,GS,1741373401
17,gibara,21.1097,-76.1317,26.59,61,9,4.84,CU,1741373402
18,cape canaveral,28.4058,-80.6048,23.36,43,0,2.68,US,1741373403
19,illizi,26.4833,8.4667,20.07,50,0,3.31,DZ,1741373404
20,saipan,15.1355,145.701,24.8,89,0,2.57,MP,1741373405
21,atbasar,51.8,68.3333,-15.23,100,97,2.04,KZ,1741373406
22,avarua,-21.2078,-159.775,28.03,83,75,3.6,CK,1741373407
23,afaahiti,-17.75,-149.2833,26.84,74,44,5.06,PF,1741373408
24,yellowknife,62.456,-114.3525,-19.21,92,75,3.09,CA,1741373193
25,arkhangel'sk,64.5401,40.5433,-1.94,86,100,4.0,RU,1741373411
26,westport,41.1415,-73.3579,7.79,37,40,9.26,US,1741373412
27,grand-bassam,5.2118,-3.7388,27.98,81,100,4.34,CI,1741373413
28,tralee,52.2704,-9.7026,11.14,87,100,4.63,IE,1741373414
29,lebu,-37.6167,-73.65,17.22,57,0,4.63,CL,1741373415
30,happy valley-goose bay,53.3168,-60.3315,0.17,100,100,4.12,CA,1741373416
31,jarny,49.1574,5.8788,9.99,65,8,1.81,FR,1741373417
32,puerto ayora,-0.7393,-90.3518,28.64,88,42,2.24,EC,1741373418
33,el astillero,43.4009,-3.8205,18.34,50,20,5.66,ES,1741373419
34,khanbari,27.3747,87.2039,15.66,57,48,0.46,NP,1741373420
35,ribeira grande,38.5167,-28.7,11.54,58,40,8.75,PT,1741373421
36,uturoa,-16.7333,-151.4333,27.71,75,100,3.71,PF,1741373422
37,ayaviri,-14.8864,-70.5889,13.43,55,99,0.65,PE,1741373424
38,zeya,53.75,127.2667,-18.71,99,100,1.1,RU,1741373425
39,luderitz,-26.6481,15.1594,19.79,74,32,6.11,NA,1741373426
40,sitia,35.2,26.0986,13.28,70,0,1.91,GR,1741373427
41,longyearbyen,78.2186,15.6401,-6.09,73,75,1.03,SJ,1741373428
42,matoury,4.8483,-52.3317,29.98,70,75,7.72,GF,1741373429
43,arroyo,41.6096,-4.7969,11.73,76,20,7.72,ES,1741373430
44,laguna,38.421,-121.4238,14.57,58,0,6.69,US,1741373431
45,tranqueras,-31.2,-55.75,37.62,26,85,2.78,UY,1741373432
46,iqaluit,63.7506,-68.5145,-15.15,66,75,2.57,CA,1741373433
47,talnakh,69.4865,88.3972,-26.75,95,11,2.27,RU,1741373434
48,kiama,-34.6833,150.8667,17.54,93,62,2.01,AU,1741373436
49,lai chau,22.3997,103.4517,12.46,74,100,0.93,VN,1741373437
50,ballinasloe,53.3275,-8.2194,9.74,94,100,4.49,IE,1741373438
51,juneau,58.3019,-134.4197,3.0,95,100,4.12,US,1741373439
52,labytnangi,66.6572,66.4183,-16.47,92,78,5.72,RU,1741373399
53,ketchikan,55.3422,-131.6461,7.99,89,100,11.32,US,1741373442
54,west island,-12.1568,96.8225,25.99,94,75,2.57,CC,1741373443
55,abepura,-2.6333,140.5833,24.45,94,20,0.51,ID,1741373444
56,petropavlovsk-kamchatsky,53.0452,158.6483,-6.67,42,75,15.0,RU,1741373445
57,hun,29.1268,15.9477,20.61,38,100,2.7,LY,1741373447
58,college,64.8569,-147.8028,-2.03,90,100,2.06,US,1741373448
59,kailua-kona,19.6406,-155.9956,24.75,76,0,3.6,US,1741373449
60,sarikei,2.1167,111.5167,22.77,100,100,0.53,MY,1741373450
61,logrono,42.4667,-2.45,10.72,87,75,6.69,ES,1741373451
62,christchurch,-43.5333,172.6333,12.11,90,100,4.63,NZ,1741373452
63,altai,46.3722,96.2583,-9.22,55,9,2.49,MN,1741373453
64,iskateley,67.6803,53.1512,-20.3,99,13,3.32,RU,1741373454
65,brookings,44.3114,-96.7984,4.47,43,99,2.24,US,1741373455
66,adamstown,-25.066,-130.1015,25.24,74,0,1.24,PN,1741373456
67,vadso,70.0744,29.7487,-4.91,86,20,4.12,NO,1741373457
68,tiksi,71.6872,128.8694,-23.19,96,100,6.64,RU,1741373458
69,lae,-6.7221,146.9847,22.24,92,100,2.94,PG,1741373460
70,margaret river,-33.95,115.0667,16.9,88,0,3.6,AU,1741373461
71,wailua homesteads,22.0669,-159.378,21.74,89,100,8.23,US,1741373462
72,vorgashor,67.5833,63.95,-23.47,98,40,2.52,RU,1741373463
73,south sioux city,42.4739,-96.4136,2.97,77,100,6.17,US,1741373464
74,neryungri,56.6709,124.6491,-27.88,98,91,1.57,RU,1741373465
75,tolanaro,-25.0319,46.9987,28.04,83,20,4.12,MG,1741373466
76,urzhum,57.1141,49.9996,0.41,97,100,7.85,RU,1741373467
77,ushuaia,-54.8,-68.3,7.81,81,100,7.72,AR,1741373468
78,ust'-charyshskaya pristan',52.3934,83.6635,-3.5,91,100,3.71,RU,1741373469
79,qaqortoq,60.7167,-46.0333,-2.0,82,100,2.0,GL,1741373470
80,fort st. john,56.2499,-120.8529,2.94,65,100,8.75,CA,1741373472
81,praya,14.9215,-23.5087,23.3,56,20,8.23,CV,1741373473
82,tobruk,32.0836,23.9764,16.36,61,60,1.09,LY,1741373474
83,olonkinbyen,70.9221,-8.7187,-4.81,62,99,5.17,SJ,1741373475
84,mar del plata,-38.0023,-57.5575,34.01,49,0,7.72,AR,1741373476
85,anapa,44.8908,37.3239,3.19,100,0,3.0,RU,1741373477
86,edinburgh of the seven seas,-37.0676,-12.3116,18.21,94,100,10.58,SH,1741373478
87,hermanus,-34.4187,19.2345,21.0,76,0,5.85,ZA,1741373479
88,mili,6.0815,171.735,27.07,77,1,10.17,MH,1741373480
89,badger,64.8,-147.5333,-2.07,92,100,2.06,US,1741373481
90,chonchi,-42.6128,-73.8092,11.73,86,99,3.8,CL,1741373482
91,waitangi,-43.9535,-176.5597,13.72,77,100,5.87,NZ,1741373483
92,yatou,37.15,122.3833,1.19,86,100,2.5,CN,1741373485
93,abaete,-19.16,-45.4458,31.13,26,0,3.13,BR,1741373486
94,mount gambier,-37.8333,140.7667,17.66,61,0,2.08,AU,1741373487
95,tambopata,-12.7333,-69.1833,29.94,70,40,1.54,PE,1741373488
96,jamestown,42.097,-79.2353,2.79,51,40,7.72,US,1741373489
97,klyuchi,52.2667,79.1667,-11.32,96,100,3.17,RU,1741373490
98,ust-nera,64.5667,143.2,-36.62,100,91,1.23,RU,1741373491
99,khandyga,62.6667,135.6,-37.15,99,85,1.43,RU,1741373492
100,la'ie,21.6477,-157.9253,21.66,73,46,9.77,US,1741373493
101,tibanbang,6.6315,126.1055,26.4,82,100,3.14,PH,1741373494
102,loikaw,19.6742,97.2094,18.8,53,100,2.01,MM,1741373495
103,inhambane,-23.865,35.3833,25.99,78,20,2.06,MZ,1741373497
104,bowie,33.4501,-94.4335,18.99,75,100,0.89,US,1741373498
105,sinop,41.7711,34.8709,7.52,51,0,2.19,TR,1741373499
106,nagqu,31.5,92.0,-7.11,36,100,2.44,CN,1741373500
107,selfoss,63.9331,-20.9971,-1.09,80,100,1.57,IS,1741373501
108,constantia,44.1833,28.65,7.61,64,100,1.68,RO,1741373502
109,tromso,69.6496,18.957,0.01,80,0,2.06,NO,1741373503
110,conception bay south,47.4999,-52.9981,8.29,97,100,13.74,CA,1741373504
111,itaituba,-4.2761,-55.9836,26.09,89,75,2.06,BR,1741373505
112,ciudad manuel doblado,20.7333,-101.9333,28.0,11,0,6.29,MX,1741373506
113,codrington,-38.2667,141.9667,16.91,66,5,3.49,AU,1741373507
114,howard springs,-12.497,131.047,26.95,100,91,1.74,AU,1741373508
115,hawaiian paradise park,19.5933,-154.9731,19.94,100,100,0.0,US,1741373510
116,kingston,17.997,-76.7936,30.65,62,20,3.6,JM,1741373511
117,la passe,45.5549,-0.8967,13.21,74,32,9.3,FR,1741373512
118,sofo-birnin-gwari,11.0154,6.7804,31.01,12,33,4.72,NG,1741373513
119,dunedin,-45.8742,170.5036,12.67,75,100,1.79,NZ,1741373514
120,nuuk,64.1835,-51.7216,-9.66,79,75,1.54,GL,1741373515
121,aqaba,29.5267,35.0078,14.92,12,75,1.03,JO,1741373516
122,itoman,26.1247,127.6694,18.01,68,99,3.09,JP,1741373517
123,castillos,-34.1667,-53.8333,33.18,44,100,4.93,UY,1741373518
124,aripuana,-9.1667,-60.6333,27.5,82,99,1.67,BR,1741373519
125,jugsalai,22.7667,86.1833,19.99,49,5,1.03,IN,1741373520
126,tomatlan,19.9333,-105.25,33.69,23,93,4.08,MX,1741373522
127,nsanje,-16.92,35.262,23.68,97,57,1.32,MW,1741373523
128,ulanhot,46.0833,122.0833,-6.85,74,100,4.73,CN,1741373524
129,kavaratti,10.5669,72.642,28.45,72,0,3.66,IN,1741373525
130,papatowai,-46.5619,169.4708,10.9,94,100,3.87,NZ,1741373526
131,puerto natales,-51.7236,-72.4875,9.25,66,75,9.77,CL,1741373527
132,broome,42.2506,-75.833,4.25,50,75,7.2,US,1741373528
133,jumla,29.2747,82.1838,2.48,85,98,2.66,NP,1741373529
134,mount isa,-20.7333,139.5,25.87,65,1,2.06,AU,1741373530
135,yantarnyy,54.8717,19.9381,7.27,68,4,2.29,RU,1741373531
136,kani keli,-12.9536,45.1033,29.59,73,100,3.74,YT,1741373532
137,bima,-8.4667,118.7167,24.18,96,100,0.18,ID,1741373533
138,pemangkat,1.1667,108.9667,24.25,89,100,2.72,ID,1741373535
139,hamilton,39.1834,-84.5333,7.55,61,100,4.63,US,1741373536
140,cill airne,52.05,-9.5167,11.03,87,100,4.63,IE,1741373537
141,thompson,55.7435,-97.8558,-10.91,52,100,4.63,CA,1741373538
142,susuman,62.7833,148.1667,-45.84,100,87,0.4,RU,1741373539
143,atafu village,-8.5421,-172.5159,27.08,78,27,4.1,TK,1741373540
144,namibe,-15.1961,12.1522,25.22,80,100,4.44,AO,1741373541
145,bangassou,4.7413,22.8184,25.56,60,100,1.73,CF,1741373542
146,yarmouth,41.7057,-70.2286,7.03,42,0,15.2,US,1741373543
147,sao gabriel,-30.3364,-54.32,38.48,23,98,4.38,BR,1741373544
148,vizinga,61.0749,50.1031,-4.79,98,100,1.21,RU,1741373545
149,padang,-0.9492,100.3543,25.03,85,100,2.57,ID,1741373546
150,georgetown,5.4112,100.3354,28.96,78,20,1.54,MY,1741373548
151,fort bragg,35.139,-79.006,11.91,37,100,3.6,US,1741373549
152,mahenge,-8.6833,36.7167,18.76,93,14,1.47,TZ,1741373551
153,fayzabad,37.1166,70.58,5.32,87,100,1.0,AF,1741373552
154,kurayoshi,35.4333,133.8167,2.71,74,100,1.84,JP,1741373553
155,constitucion,-35.3333,-72.4167,20.05,61,64,6.82,CL,1741373432
156,udachny,66.4167,112.4,-37.24,100,100,2.01,RU,1741373555
157,liwa,24.5361,56.5656,25.01,41,0,1.54,OM,1741373556
158,bonthe,7.5264,-12.505,25.33,72,14,4.84,SL,1741373557
159,akjoujt,19.6969,-14.4164,27.32,13,0,4.96,MR,1741373558
160,sodra sandby,56.5667,16.6167,8.27,71,1,3.31,SE,1741373559
161,bousse,12.6606,-1.8922,35.61,24,81,1.42,BF,1741373561
162,alofi,-19.0595,-169.9187,26.94,83,20,3.6,NU,1741373562
163,polygyros,40.3744,23.4383,10.92,62,0,1.57,GR,1741373563
164,candido de abreu,-24.5669,-51.3333,29.15,51,91,0.74,BR,1741373564
165,fortuna,40.5982,-124.1573,13.32,69,64,0.45,US,1741373565
166,port elizabeth,-33.918,25.5701,21.29,91,100,1.03,ZA,1741373566
167,alotau,-10.3069,150.4462,25.53,89,98,2.01,PG,1741373567
168,roswell,34.0232,-84.3616,18.48,27,75,4.12,US,1741373568
169,sur,22.5667,59.5289,25.72,34,0,3.51,OM,1741373569
170,teknaf,20.8624,92.3058,19.09,65,6,2.21,BD,1741373570
171,vilyuchinsk,52.9306,158.4028,-5.85,78,100,5.99,RU,1741373571
172,stanley,54.868,-1.6985,8.62,96,75,0.51,GB,1741373572
173,idri,27.5,13.2667,19.97,54,100,6.18,LY,1741373574
174,sinabang,2.4803,96.3801,26.36,87,100,5.8,ID,1741373575
175,mata-utu,-13.2816,-176.1745,24.99,88,100,2.67,WF,1741373576
176,taltal,-25.4,-70.4833,22.31,71,26,4.32,CL,1741373577
177,invercargill,-46.4,168.35,11.68,93,100,2.24,NZ,1741373578
178,wanning,18.8003,110.3967,16.79,92,100,4.38,CN,1741373579
179,fale old settlement,-9.3852,-171.2468,26.14,83,100,3.15,TK,1741373580
180,lerwick,60.1545,-1.1494,6.84,73,100,1.86,GB,1741373581
181,kristiansund,63.1115,7.732,6.74,75,40,14.92,NO,1741373582
182,isiro,2.7739,27.616,25.02,59,100,1.38,CD,1741373583
183,courtenay,49.6866,-124.9936,8.11,81,100,9.77,CA,1741373584
184,la ronge,55.1001,-105.2842,0.14,59,100,6.17,CA,1741373585
185,zykovo,55.9519,93.1461,-8.94,96,92,2.1,RU,1741373587
186,minas de marcona,-15.2119,-75.1103,23.11,56,4,8.9,PE,1741373588
187,guelmim,28.987,-10.0574,18.19,45,75,6.17,MA,1741373589
188,portel,-1.9356,-50.8211,25.92,86,100,2.35,BR,1741373590
189,laascaanood,8.4774,47.3597,25.45,52,78,6.89,SO,1741373591
190,pfronten,47.5833,10.5667,7.08,76,11,1.96,DE,1741373593
191,calabozo,8.9242,-67.4293,36.83,28,100,2.99,VE,1741373594
192,belyy yar,53.6039,91.3903,-9.06,79,100,0.0,RU,1741373595
193,hell-ville,-13.4,48.2667,25.83,89,100,10.99,MG,1741373596
194,colonia,50.9333,6.95,14.97,45,0,2.06,DE,1741373598
195,port augusta,-32.5,137.7667,25.28,29,8,2.58,AU,1741373599
196,ha long,20.9511,107.08,15.1,75,100,2.22,VN,1741373600
197,am timan,11.0297,20.2827,32.25,13,99,2.34,TD,1741373601
198,st. john's,47.5649,-52.7093,8.42,97,100,13.38,CA,1741373602
199,vernon,50.2581,-119.2691,4.96,61,98,0.51,CA,1741373403
200,mariehamn,60.0973,19.9348,3.92,81,0,3.09,AX,1741373604
201,naze,28.3667,129.4833,14.51,75,100,2.58,JP,1741373605
202,tongliao,43.6125,122.2653,-2.5,64,100,5.27,CN,1741373607
203,mount pearl,47.5166,-52.7813,7.96,97,100,13.38,CA,1741373609
204,buka,40.8108,69.1986,5.16,78,79,3.58,UZ,1741373610
205,mountain home,43.133,-115.6912,8.34,53,20,7.72,US,1741373611
206,jiazi,22.8779,116.067,12.94,81,79,4.27,CN,1741373612
207,touros,-5.1989,-35.4608,29.38,64,100,6.53,BR,1741373613
208,yanaul,56.2719,54.9309,-2.63,90,100,2.36,RU,1741373614
209,zhangye,38.9342,100.4517,1.43,30,0,2.83,CN,1741373615
210,karratha,-20.7377,116.8463,32.56,43,80,1.61,AU,1741373616
211,greenland,43.0362,-70.8328,5.68,37,20,11.32,US,1741373617
212,kargasok,59.0556,80.8572,-3.21,98,100,0.28,RU,1741373618
213,horta,38.5333,-28.6333,11.12,63,40,8.75,PT,1741373619
214,palikir - national government center,6.9248,158.1611,27.74,78,20,1.34,FM,1741373620
215,kyaikto,17.3,97.0167,24.99,59,52,1.44,MM,1741373622
216,alice springs,-23.7,133.8833,20.75,24,9,0.0,AU,1741373623
217,yadrin,55.9405,46.2062,0.78,82,100,7.62,RU,1741373624
218,port saint john's,-31.6229,29.5448,24.36,86,81,0.96,ZA,1741373625
219,minbu,20.1833,94.8833,21.92,45,17,2.41,MM,1741373626
220,tukrah,32.5341,20.5791,15.98,72,100,0.41,LY,1741373627
221,chandia,23.65,80.7,19.39,17,0,2.11,IN,1741373628
222,anloga,5.7947,0.8973,28.38,84,100,6.17,GH,1741373629
223,kuta,-8.7233,115.1723,27.97,94,20,0.51,ID,1741373630
224,prince rupert,54.3161,-130.3201,6.83,87,100,19.55,CA,1741373631
225,walvis bay,-22.9575,14.5053,27.53,50,20,4.63,NA,1741373632
226,chimoio,-19.1164,33.4833,22.92,100,75,4.63,MZ,1741373633
227,takoradi,4.8845,-1.7554,28.26,80,79,4.72,GH,1741373635
228,sitka,57.0531,-135.33,7.94,66,100,6.69,US,1741373636
229,bamboo flat,11.7,92.7167,25.05,78,20,1.03,IN,1741373637
230,ulysses,37.5814,-101.3552,11.02,40,0,8.23,US,1741373638
231,mugia,43.1041,-9.2179,12.17,85,100,13.07,ES,1741373639
232,bereznik,62.8551,42.7072,-3.22,92,96,4.08,RU,1741373640
233,pirallahi,40.4723,50.333,11.08,67,100,6.88,AZ,1741373641
234,dakhla,23.6848,-15.958,19.01,77,0,7.2,EH,1741373642
235,punta arenas,-53.15,-70.9167,12.06,58,75,11.32,CL,1741373643
236,priozersk,61.0393,30.1291,1.72,86,96,2.43,RU,1741373644
237,labrador city,52.9463,-66.9114,-7.05,93,100,5.66,CA,1741373647
238,general pinedo,-27.3167,-61.2833,41.66,18,48,10.04,AR,1741373648
239,merida,20.9667,-89.6167,34.01,43,20,5.66,MX,1741373649
240,sao geraldo do araguaia,-6.4006,-48.555,27.16,86,100,1.86,BR,1741373650
241,bikenibeu village,1.3673,173.1241,26.98,89,20,4.63,KI,1741373652
242,hillsboro,45.5229,-122.9898,10.04,75,54,1.34,US,1741373370
243,ormara,25.2088,64.6357,26.84,47,0,3.8,PK,1741373654
244,berezovo,63.9381,65.0419,-12.53,95,100,5.57,RU,1741373655
245,emerald,-23.5333,148.1667,23.88,41,0,3.96,AU,1741373657
246,hasaki,35.7333,140.8333,5.45,56,100,7.48,JP,1741373659
247,nova sintra,14.8667,-24.7167,20.99,71,0,8.03,CV,1741373660
248,haiku-pauwela,20.9219,-156.3051,24.03,81,40,12.96,US,1741373661
249,deschutes river woods,43.9915,-121.3584,7.46,39,100,1.79,US,1741373662
250,twin falls,42.3505,-114.6445,2.18,64,100,7.2,US,1741373663
251,tazacorte,28.629,-17.9293,18.54,78,75,2.24,ES,1741373664
252,prado,-17.3411,-39.2208,27.6,69,25,4.08,BR,1741373666
253,keflavik,64.0049,-22.5624,1.24,93,20,1.54,IS,1741373667
254,puerto baquerizo moreno,-0.9,-89.6,28.55,79,75,3.09,EC,1741373668
255,egremont,54.4794,-3.5276,12.49,79,100,3.18,GB,1741373670
256,ancud,-41.8697,-73.8203,12.43,84,56,7.03,CL,1741373671
257,tofol,5.3248,163.0078,27.97,74,44,9.24,FM,1741373672
258,sarlat-la-caneda,44.889,1.2166,10.88,71,54,5.68,FR,1741373673
259,morant bay,17.8815,-76.4093,28.72,67,32,5.51,JM,1741373674
260,lesina,41.8594,15.3527,10.88,74,100,1.6,IT,1741373675
261,ntchisi,-13.5278,33.9149,16.26,97,42,1.22,MW,1741373676
262,kenai,60.5544,-151.2583,-0.48,89,0,1.54,US,1741373677
263,muynoq,43.7683,59.0214,6.88,85,93,9.02,UZ,1741373678
264,glace bay,46.1969,-59.957,2.77,95,100,9.88,CA,1741373679
265,muroto-misakicho,33.2833,134.15,7.33,59,100,4.07,JP,1741373680
266,sarmiento,-45.5882,-69.07,18.9,30,100,2.79,AR,1741373681
267,carauari,-4.8828,-66.8958,25.78,85,100,0.68,BR,1741373683
268,nowogrod bobrzanski,51.7986,15.2352,12.91,65,0,2.35,PL,1741373684
269,lihue,21.9789,-159.3672,22.08,83,100,8.23,US,1741373685
270,tura,25.5198,90.2201,17.15,34,0,1.83,IN,1741373686
271,floro,61.5996,5.0328,4.98,87,40,2.57,NO,1741373687
272,xilin hot,43.9667,116.0333,-5.82,77,12,1.48,CN,1741373688
273,olyokminsk,60.3736,120.4264,-13.7,98,100,1.43,RU,1741373689
274,dudinka,69.4058,86.1778,-31.58,100,66,2.38,RU,1741373690
275,gemena,3.25,19.7667,23.46,84,100,2.64,CD,1741373692
276,angaur state,6.906,134.13,27.63,80,100,8.82,PW,1741373694
277,enewetak,11.3474,162.3373,26.81,81,7,9.76,MH,1741373695
278,buguma,4.7341,6.8635,29.13,72,4,4.77,NG,1741373696
279,anacapri,40.5558,14.2136,13.58,47,100,1.54,IT,1741373697
280,souillac,-20.5167,57.5167,28.21,83,40,5.14,MU,1741373698
281,kaithal,29.8,76.3833,14.42,37,0,2.5,IN,1741373699
282,el granada,37.5027,-122.4694,15.66,69,0,7.2,US,1741373700
283,ghat,24.9647,10.1728,24.14,30,100,2.05,LY,1741373701
284,sooke,48.3746,-123.7276,8.38,88,100,2.57,CA,1741373545
285,fisterra,42.9049,-9.2629,12.47,84,100,15.55,ES,1741373703
286,agat village,13.3886,144.6585,25.76,87,0,0.0,GU,1741373704
287,baardheere,2.3446,42.2764,30.53,60,99,8.55,SO,1741373705
288,praia da vitoria,38.7333,-27.0667,10.14,71,75,14.94,PT,1741373707
289,rio grande,-32.035,-52.0986,30.54,51,4,7.02,BR,1741373708
290,whitehorse,60.7161,-135.0538,-4.43,62,100,0.0,CA,1741373423
291,vernal,40.4555,-109.5287,3.84,75,75,3.09,US,1741373710
292,tateyama,34.9833,139.8667,4.3,58,100,3.72,JP,1741373711
293,arraial do cabo,-22.9661,-42.0278,31.98,62,20,5.66,BR,1741373712
294,luanda,-8.8368,13.2343,25.91,83,100,1.88,AO,1741373713
295,cabo san lucas,22.8909,-109.9124,25.17,43,0,3.6,MX,1741372838
296,yakeshi,49.2833,120.7333,-21.62,100,100,1.2,CN,1741373716
297,moshi,-3.35,37.3333,23.11,73,68,2.42,TZ,1741373717
298,socorro,31.6546,-106.3033,18.6,15,0,7.67,US,1741373719
299,gadzhiyevo,69.2551,33.3362,-9.37,97,83,3.36,RU,1741373720
300,corinto,37.9407,22.9573,12.72,60,34,0.56,GR,1741373721
301,mirnyy,62.5353,113.9611,-17.59,98,100,1.87,RU,1741373723
302,margate,51.3813,1.3862,11.6,68,69,4.01,GB,1741373724
303,marsh harbour,26.5412,-77.0636,21.94,51,15,1.93,BS,1741373725
304,devonport,-41.1667,146.35,15.85,94,64,2.9,AU,1741373726
305,manokwari,-0.8667,134.0833,25.71,77,71,1.07,ID,1741373727
306,kapuskasing,49.4169,-82.4331,-7.95,73,100,6.17,CA,1741373728
307,pampas,-12.4,-74.9,12.3,66,99,3.26,PE,1741373730
308,slantsy,59.1182,28.0914,3.01,84,13,2.19,RU,1741373731
309,kopong,-24.4833,25.8833,25.64,53,32,2.82,BW,1741373732
310,hadibu,12.65,54.0333,24.73,78,96,4.61,YE,1741373733
311,rybinsk,58.0446,38.8426,-1.13,87,85,3.97,RU,1741373734
312,olovyannaya,50.95,115.5667,-22.17,100,100,1.31,RU,1741373735
313,anadyr,64.75,177.4833,-27.72,76,0,0.0,RU,1741373737
314,ilulissat,69.2167,-51.1,-13.99,85,75,2.06,GL,1741373738
315,izluchinsk,60.9794,76.9242,-7.99,95,98,3.95,RU,1741373739
316,qui nhon,13.7667,109.2333,22.37,78,100,5.24,VN,1741373741
317,uliastay,47.7417,96.8444,-13.28,67,100,4.73,MN,1741373742
318,remire-montjoly,4.9167,-52.2667,30.02,70,75,7.72,GF,1741373743
319,portland,45.5234,-122.6762,9.89,76,62,6.71,US,1741372967
320,romsey,50.9891,-1.4999,11.98,86,75,2.57,GB,1741373745
321,kulim,5.365,100.5618,25.75,91,97,1.93,MY,1741373746
322,canico,32.6333,-16.85,17.62,80,40,2.68,PT,1741373747
323,motueka,-41.1333,173.0167,15.61,85,100,1.78,NZ,1741373748
324,toliara,-23.35,43.6667,27.51,86,3,1.44,MG,1741373749
325,vilyuysk,63.7553,121.6247,-25.32,99,100,1.84,RU,1741373750
326,kassala,15.451,36.4,26.87,13,80,5.14,SD,1741373751
327,new norfolk,-42.7826,147.0587,12.62,98,20,0.96,AU,1741373753
328,port sudan,19.6175,37.2164,22.29,57,0,4.92,SD,1741373754
329,tual,-5.6667,132.75,28.31,77,100,2.96,ID,1741373755
330,atar,20.5169,-13.0499,27.42,15,0,3.93,MR,1741373756
331,capayan,-28.761,-66.0502,39.23,27,45,1.79,AR,1741373757
332,butembo,0.15,29.2833,18.69,63,93,1.25,CD,1741373758
333,broken hill,-31.95,141.4333,21.52,33,0,6.13,AU,1741373759
334,yeniseysk,58.4497,92.1703,-4.36,96,100,3.05,RU,1741373760
335,newman,37.3138,-121.0208,13.92,65,0,6.71,US,1741373761
336,varva,50.495,32.7197,9.09,68,100,2.48,UA,1741373764
337,inirida,3.8653,-67.9239,30.01,63,100,1.79,CO,1741373765
338,isafjordur,66.0755,-23.124,-0.16,81,91,2.88,IS,1741373766
339,qulsary,46.9531,54.0198,2.55,96,100,5.9,KZ,1741373767
340,geraldton,-28.7667,114.6,22.23,68,75,7.2,AU,1741373768
341,gradiska,45.1411,17.25,9.14,60,9,0.94,BA,1741373769
342,ad dabbah,18.05,30.95,21.06,21,0,4.91,SD,1741373770
343,weno,7.4515,151.8468,28.1,73,51,8.65,FM,1741373771
344,chibougamau,49.9168,-74.3659,-13.21,78,100,7.72,CA,1741373772
345,san patricio,28.017,-97.5169,24.97,51,100,4.08,US,1741373773
346,northam,51.0333,-4.2167,11.0,90,100,1.34,GB,1741373774
347,cabedelo,-6.9811,-34.8339,30.37,72,0,6.15,BR,1741373775
348,akola,20.7333,77.0,26.05,15,0,1.59,IN,1741373777
349,mombetsu,44.3525,143.3525,-10.13,84,22,2.95,JP,1741373778
350,tarko-sale,64.9225,77.785,-14.61,94,49,6.69,RU,1741373779
351,coachella,33.6803,-116.1739,18.16,41,3,1.34,US,1741373780
352,an nuhud,12.7,28.4333,22.32,18,81,6.34,SD,1741373781
353,bel ombre,-4.6167,55.4167,28.91,74,20,2.57,SC,1741373782
354,qusmuryn,52.4503,64.6311,-8.0,97,97,1.68,KZ,1741373783
355,belen,36.4891,36.2233,10.08,38,0,0.0,TR,1741373784
356,port lincoln,-34.7333,135.8667,20.47,86,27,4.08,AU,1741373785
357,daru,-9.0763,143.2092,26.49,84,99,0.89,PG,1741373786
358,nar'yan-mar,67.6713,53.087,-20.65,99,16,3.3,RU,1741373787
359,tayaman,13.2295,120.5726,25.35,78,21,3.03,PH,1741373788
360,san luis de la loma,17.2706,-100.8939,30.13,44,0,3.61,MX,1741373789
361,port alfred,-33.5906,26.891,20.66,99,100,4.66,ZA,1741373791
362,lichinga,-13.3128,35.2406,21.05,83,20,2.57,MZ,1741373792
363,nicoya,10.1483,-85.452,37.1,21,18,3.3,CR,1741373793
364,shchigry,51.8755,36.9043,6.73,88,7,3.75,RU,1741373794
365,oamaru,-45.0784,170.9801,10.21,91,100,2.49,NZ,1741373795
366,barra do bugres,-15.0725,-57.1811,28.13,69,98,2.59,BR,1741373796
367,carutapera,-1.195,-46.02,26.94,85,100,3.33,BR,1741373797
368,lagos,6.5833,3.75,28.39,83,75,3.42,NG,1741373798
369,akonolinga,3.7667,12.25,21.4,90,100,1.55,CM,1741373799
370,negotin,44.2264,22.5308,11.99,48,10,1.51,RS,1741373800
371,redencao,-4.2258,-38.7306,26.54,85,100,2.1,BR,1741373801
372,pesqueira,-8.3578,-36.6964,25.91,53,95,5.94,BR,1741373803
373,camana,-16.6228,-72.7111,23.65,76,87,4.62,PE,1741373804
374,itapecerica,-20.4725,-45.1256,27.24,47,3,2.78,BR,1741373805
375,lubuklinggau,-3.3,102.8667,23.21,85,100,1.48,ID,1741373806
376,lienz,46.8289,12.769,2.66,83,0,0.91,AT,1741373807
377,mandalgovi,45.7625,106.2708,-3.71,41,0,3.51,MN,1741373808
378,hotan,37.0997,79.9269,6.81,29,94,4.49,CN,1741373809
379,vilhena,-12.7406,-60.1458,27.12,78,75,6.69,BR,1741373810
380,ocos,14.5094,-92.1933,29.4,64,21,5.27,GT,1741373811
381,lapovo,44.1842,21.0973,12.58,54,5,1.81,RS,1741373812
382,baranchinskiy,58.1617,59.6991,-15.22,99,100,1.21,RU,1741373813
383,i-n-salah,27.1935,2.4607,22.44,29,0,2.85,DZ,1741373814
384,hafar al-batin,28.4328,45.9708,17.32,100,75,10.29,SA,1741373816
385,pangoa,-12.1167,-73.0,27.22,63,100,1.14,PE,1741373817
386,bouca,6.5105,18.2733,29.5,27,94,0.83,CF,1741373818
387,turar ryskulov,42.5333,70.3333,1.66,84,100,13.09,KZ,1741373819
388,siwa oasis,29.2041,25.5195,19.27,30,83,2.21,EG,1741373820
389,road town,18.4167,-64.6167,28.02,74,40,3.09,VG,1741373821
390,cobourg,50.2667,10.9667,10.32,43,0,1.93,DE,1741373822
391,biltine,14.5333,20.9167,27.66,14,100,5.7,TD,1741373823
392,ryazanskaya,44.9553,39.5889,8.0,72,0,1.1,RU,1741373824
393,quellon,-43.1167,-73.6167,10.28,92,100,5.61,CL,1741373825
394,zamora,-4.0692,-78.9567,26.08,80,100,1.22,EC,1741373826
395,luanco,43.6152,-5.7934,16.71,65,100,6.71,ES,1741373829
396,derzhavinsk,51.1,66.3167,-6.86,95,80,5.22,KZ,1741373830
397,el nido,11.1858,119.3956,26.75,84,96,5.81,PH,1741373831
398,gornopravdinsk,60.05,69.9,-10.57,97,99,2.19,RU,1741373832
399,sangkhla buri,15.1555,98.4536,22.95,75,68,0.58,TH,1741373833
400,kamianske,48.5113,34.6021,10.08,56,100,3.0,UA,1741373834
401,tommot,58.9564,126.2925,-14.05,98,100,1.36,RU,1741373835
402,tsiombe,-25.3,45.4833,25.34,83,0,2.96,MG,1741373838
403,cambria,35.5641,-121.0808,12.81,79,0,4.02,US,1741373840
404,poronaysk,49.2167,143.1167,-23.44,97,25,1.47,RU,1741373842
405,zvenigovo,55.9742,48.0181,0.88,79,100,9.04,RU,1741373845
406,nantucket,41.2835,-70.0995,7.06,33,40,13.89,US,1741373846
407,ciudad lazaro cardenas,17.9583,-102.2,28.78,57,2,3.74,MX,1741373650
408,ugoofaaru,5.6667,73.0,27.14,73,52,2.16,MV,1741373848
409,kourou,5.1552,-52.6478,28.04,70,52,4.03,GF,1741373850
410,novyy rogachik,48.6768,44.0608,5.5,78,0,4.57,RU,1741373851
411,dalandzadgad,43.5708,104.425,-0.08,35,6,2.05,MN,1741373852
412,dzhalagash,45.0833,64.6667,-0.1,89,100,6.19,KZ,1741373853
413,belel,7.05,14.4333,24.35,17,7,3.27,CM,1741373855
414,piton saint-leu,-21.2196,55.3151,26.06,69,0,1.54,RE,1741373856
415,sisimiut,66.9395,-53.6735,-16.55,88,35,2.1,GL,1741373857
416,bargaal,11.2864,51.0773,24.83,84,39,2.26,SO,1741373858
417,acarau,-2.8856,-40.12,25.78,86,100,4.27,BR,1741373859
418,auki,-8.7676,160.7034,24.32,90,98,1.76,SB,1741373860
419,mossel bay,-34.1831,22.146,19.96,89,95,5.7,ZA,1741373861
420,mersing,2.4312,103.8405,26.95,94,20,3.6,MY,1741373862
421,howrah,22.5892,88.3103,23.0,60,4,0.0,IN,1741373863
422,jutai,-5.1833,-68.9,27.64,74,100,1.58,BR,1741373864
423,kerikeri,-35.2268,173.9474,12.18,90,8,1.45,NZ,1741373865
424,progreso,21.2833,-89.6667,31.86,47,0,2.72,MX,1741373867
425,aykhal,66.0,111.5,-37.6,100,100,2.71,RU,1741373868
426,juan griego,11.0817,-63.9655,28.81,61,100,6.08,VE,1741373870
427,trinidad,-14.8333,-64.9,24.99,94,75,3.09,BO,1741373871
428,taoudenni,22.6783,-3.9836,26.05,32,0,0.84,ML,1741373872
429,sao vicente,-23.9631,-46.3919,28.98,26,20,3.6,BR,1741373873
430,cozumel,20.5083,-86.9458,29.04,70,40,4.12,MX,1741373874
431,parham,17.0968,-61.7705,27.83,76,20,5.14,AG,1741373875
432,trzcianka,53.0406,16.4563,10.23,57,3,1.83,PL,1741373876
433,brigantine,39.4101,-74.3646,10.64,36,0,11.83,US,1741373878
434,nchelenge,-9.3451,28.734,25.06,74,66,1.57,ZM,1741373879
435,sabang,5.8933,95.3214,27.4,77,100,2.24,ID,1741373880
436,tokar,18.4254,37.729,23.76,54,28,4.41,SD,1741373881
437,bonga,7.2833,36.2333,16.39,95,88,0.81,ET,1741373882
438,sao joao da barra,-21.6403,-41.0511,29.05,76,18,5.91,BR,1741373883
439,tsaratanana,-16.7833,47.65,24.88,73,93,6.72,MG,1741373884
440,ceyhan,37.0247,35.8175,12.58,49,9,1.57,TR,1741373885
441,turuntayevo,52.2,107.6167,-13.61,98,88,1.09,RU,1741373886
442,peterhead,57.5058,-1.7981,7.13,92,100,5.66,GB,1741373887
443,oyem,1.5995,11.5793,21.1,92,100,1.38,GA,1741373888
444,ad darb,17.7229,42.2526,26.92,72,0,2.64,SA,1741373890
445,opuwo,-18.0607,13.84,26.64,54,100,2.99,NA,1741373891
446,vel'sk,61.0701,42.0983,-3.72,90,73,4.05,RU,1741373892
447,taksimo,56.3444,114.8794,-18.28,95,99,0.94,RU,1741373893
448,faya-largeau,17.9257,19.1043,25.19,19,7,5.72,TD,1741373894
449,arawa,-6.2132,155.5367,25.3,91,100,0.63,PG,1741373895
450,sao raimundo das mangabeiras,-7.0219,-45.4811,29.2,60,100,3.45,BR,1741373897
451,cova figueira,14.8905,-24.2934,15.24,72,2,6.51,CV,1741373898
452,bengkulu,-3.8004,102.2655,24.1,93,100,2.01,ID,1741373900
453,tatarsk,55.219,75.9828,-9.36,94,99,5.6,RU,1741373901
454,kill devil hills,36.0307,-75.676,11.01,46,0,4.63,US,1741373704
455,carnarvon,-24.8667,113.6333,24.12,73,0,8.08,AU,1741373903
456,ballina,-28.8667,153.5667,24.25,93,100,12.76,AU,1741373904
457,kas,36.2018,29.6377,15.7,54,0,2.23,TR,1741373905
458,mae sot,16.7167,98.5667,26.35,71,44,0.44,TH,1741373906
459,collingwood,44.4834,-80.2164,-0.51,62,77,8.83,CA,1741373907
460,banda aceh,5.5577,95.3222,26.53,80,100,3.13,ID,1741373908
461,dalbandin,28.8947,64.4101,20.07,33,51,2.73,PK,1741373909
462,mingshui,36.7167,117.5,4.31,68,98,3.71,CN,1741373910
463,adrar,20.5022,-10.0711,25.05,29,0,1.7,MR,1741373911
464,murashi,59.3999,48.9615,-3.65,98,100,0.83,RU,1741373913
465,namsos,64.4662,11.4957,4.95,81,75,6.17,NO,1741373914
466,ginir,7.1333,40.7,18.41,63,18,1.93,ET,1741373915
467,kalkaman,51.9525,76.0211,-11.7,93,100,3.38,KZ,1741373916
468,kabompo,-13.5927,24.2008,19.92,96,100,1.94,ZM,1741373917
469,tamanrasset,22.785,5.5228,23.95,22,40,3.6,DZ,1741373918
470,porto novo,6.4965,2.6036,29.9,80,100,4.37,BJ,1741373919
471,san mariano,7.5,126.0,21.79,94,53,0.87,PH,1741373920
472,torre del mar,36.7414,-4.0946,14.36,90,4,2.6,ES,1741373921
473,revda,56.801,59.9303,-11.39,98,100,1.4,RU,1741373922
474,nova vicosa,-17.8919,-39.3719,27.53,66,33,3.94,BR,1741373924
475,alesund,62.4723,6.1549,7.64,76,75,8.23,NO,1741373925
476,fairfield,41.2668,-73.3162,7.16,38,75,10.8,US,1741373926
477,antsiranana,-12.2787,49.2917,24.2,95,100,7.78,MG,1741373927
478,lexington,37.9887,-84.4777,11.16,36,100,5.66,US,1741373671
479,guiping,23.3925,110.0814,12.96,70,100,2.25,CN,1741373929
480,egilsstadir,65.2653,-14.3948,0.95,64,0,2.06,IS,1741373930
481,verkhnevilyuysk,63.4453,120.3167,-22.06,99,100,1.74,RU,1741373931
482,eureka,40.8021,-124.1637,12.89,77,55,3.21,US,1741373932
483,whangarei,-35.7317,174.3239,11.72,93,28,1.22,NZ,1741373835
484,rongelap,11.1635,166.8941,26.78,80,13,9.41,MH,1741373934
485,falmouth,50.1544,-5.0711,10.36,98,40,5.14,GB,1741373935
486,kinel'-cherkassy,53.4706,51.4743,1.93,100,100,5.99,RU,1741373937
487,san antonio de pale,-1.4014,5.6325,27.83,79,91,3.46,GQ,1741373938
488,segovia,41.1667,-4.0,8.63,85,100,4.28,ES,1741373939
489,vikulovo,56.8167,70.6107,-15.84,98,50,2.92,RU,1741373940
490,fort mcmurray,56.7268,-111.381,-2.23,74,100,2.06,CA,1741373941
491,yigo village,13.5361,144.8886,25.16,88,20,3.6,GU,1741373942
492,klaksvik,62.2266,-6.589,6.21,70,80,3.57,FO,1741373943
493,dunay,42.8803,132.3375,-1.4,62,100,3.91,RU,1741373944
494,vorkuta,67.5,64.0,-23.77,99,29,2.54,RU,1741373945
495,macau,22.2006,113.5461,13.85,77,40,5.66,MO,1741373946
496,tupelo,34.2576,-88.7034,18.56,34,0,6.17,US,1741373947
497,troitskiy,57.0603,63.7481,-17.28,100,73,1.13,RU,1741373949
498,senillosa,-39.0,-68.4167,23.88,32,99,12.35,AR,1741373950
499,tionk essil,12.7856,-16.5217,24.05,52,68,6.68,SN,1741373951
500,paradip garh,20.3167,86.6167,21.73,72,0,3.86,IN,1741373952
501,mosty,53.4122,24.5387,8.3,62,97,1.1,BY,1741373953
502,nemuro,43.3236,145.575,-5.46,70,38,6.41,JP,1741373954
503,luza,60.6308,47.2512,-2.18,91,99,5.17,RU,1741373955
504,brakpan,-26.2366,28.3694,23.13,13,0,3.48,ZA,1741373956
505,machico,32.7,-16.7667,17.62,71,40,2.68,PT,1741373957
506,kayalpattinam,8.5667,78.1167,26.11,79,1,2.9,IN,1741373958
507,gwadar,25.1216,62.3254,25.06,56,7,1.61,PK,1741373959
508,la palma,33.8464,-118.0467,16.09,57,0,1.54,US,1741373961
509,east london,-33.0153,27.9116,22.52,94,20,1.54,ZA,1741373962
510,zheleznogorsk,52.331,35.3711,6.85,87,10,3.41,RU,1741373963
511,kirakira,-10.4544,161.9205,25.96,81,99,1.42,SB,1741373964
512,forster,-32.1667,152.5167,22.54,78,100,7.56,AU,1741373965
513,ta`u,-14.2336,-169.5144,27.88,72,97,3.81,AS,1741373966
514,yumaguzino,52.9041,56.3933,-6.08,98,95,1.46,RU,1741373968
515,okhotsk,59.3833,143.3,-27.49,84,2,5.73,RU,1741373799
516,ribeira brava,32.65,-17.0667,17.62,75,63,9.5,PT,1741373970
517,hobyo,5.3505,48.5268,26.44,84,100,7.2,SO,1741373972
518,kidal,18.4411,1.4078,32.07,13,100,1.96,ML,1741373973
519,usinsk,65.9939,57.5281,-21.54,97,17,3.08,RU,1741373974
520,rabaul,-4.1967,152.1721,26.73,75,11,1.31,PG,1741373975
521,san juan,-31.5375,-68.5364,34.16,37,0,8.58,AR,1741373977
522,eregli,37.5133,34.0467,8.75,43,0,2.11,TR,1741373978
523,beyneu,45.3167,55.2,3.31,88,0,8.43,KZ,1741373979
524,queenstown,-31.8976,26.8753,19.54,91,100,0.86,ZA,1741373980
525,callao,-12.0667,-77.15,26.16,69,0,4.63,PE,1741373983
526,khovd,48.0056,91.6419,-13.29,68,18,0.66,MN,1741373984
527,grand gaube,-20.0064,57.6608,26.88,91,95,0.45,MU,1741373985
528,kabanjahe,3.1001,98.4908,17.76,99,100,0.74,ID,1741373986
529,paphos,34.7667,32.4167,12.88,50,12,2.57,CY,1741373987
530,coquimbo,-29.9533,-71.3436,22.85,71,0,7.2,CL,1741373988
531,morehead city,34.7229,-76.726,12.24,49,0,4.12,US,1741373989
532,tadine,-21.55,167.8833,23.69,73,100,3.44,NC,1741373990
533,al harithah,30.7186,47.7208,16.98,94,100,5.14,IQ,1741373991
534,aasiaat,68.7098,-52.8699,-22.3,96,35,1.71,GL,1741373993
535,qianzhou,28.3167,109.7167,7.23,84,100,0.27,CN,1741373994
536,semera,11.501,41.201,27.34,50,10,7.49,ET,1741373995
537,sinegorskiy,48.0139,40.8447,7.45,66,0,2.87,RU,1741373996
538,dzhangala,49.2167,50.3333,2.44,97,100,5.13,KZ,1741373997
539,rundu,-17.9333,19.7667,24.22,66,99,2.19,NA,1741373998
540,villa gesell,-37.2639,-56.973,32.28,47,27,7.91,AR,1741374000
541,piti village,13.4626,144.6933,26.03,88,0,0.0,GU,1741374001
542,ixtlan del rio,21.0333,-104.3667,32.6,11,91,2.14,MX,1741374002
543,white hall,34.274,-92.091,18.25,75,100,0.89,US,1741374004
544,leiyang,26.4024,112.8591,7.93,84,77,0.47,CN,1741374005
545,karatau,43.1667,70.4667,2.92,77,90,15.59,KZ,1741374006
546,miandrivazo,-19.5167,45.4667,27.99,82,100,0.36,MG,1741374007
547,vangaindrano,-23.35,47.6,25.03,87,3,0.41,MG,1741374008
548,turpan,42.9333,89.1667,8.93,29,100,1.68,CN,1741374009
549,kattivakkam,13.2167,80.3167,27.05,71,0,3.4,IN,1741374010
550,merowe,18.4833,31.8167,20.92,19,60,4.57,SD,1741374011
551,kiunga,-6.1219,141.2906,22.76,99,100,0.86,PG,1741374012
552,moyynkum,44.2914,72.9469,1.46,84,98,9.01,KZ,1741374013
553,slivnitsa,42.85,23.0333,9.74,61,2,2.5,BG,1741374014
554,ghanzi,-21.5667,21.7833,24.25,43,0,3.97,BW,1741374016
555,katsuura,35.1333,140.3,5.41,64,100,6.44,JP,1741374017
556,antalaha,-14.9003,50.2788,26.06,96,100,11.04,MG,1741374018
557,plainview,40.7765,-73.4673,9.73,33,6,4.02,US,1741374019
558,boa esperanca,-21.09,-45.5658,27.41,50,5,5.62,BR,1741374020
559,al hufuf,25.3646,49.5653,21.19,78,0,2.57,SA,1741374016
560,melekeok village,7.4957,134.6367,27.27,79,96,6.55,PW,1741374022
561,kirensk,57.7853,108.1119,-20.44,100,100,0.64,RU,1741373818
562,greenville,35.6127,-77.3663,12.3,40,0,4.63,US,1741374024
563,pemba,-12.974,40.5178,27.34,85,11,4.37,MZ,1741374025
564,khasab,26.1799,56.2477,26.06,32,13,3.18,OM,1741374026
